id,name_in_english,name_in_spanish,countries,country_code,degree_of_endangerment,number_of_speakers,latitude,longitude
1022,South Italian,napolitano-calabrés,Italy,ITA,Vulnerable,7500000.0,40.9798,15.249
1023,Sicilian,siciliano,Italy,ITA,Vulnerable,5000000.0,37.4399,14.5019
383,Low Saxon,bajo sajón,"Germany, Denmark, Netherlands, Poland, Russian Federation","DEU, DNK, NLD, POL, RUS",Vulnerable,4800000.0,53.4029,10.3601
335,Belarusian,bielorruso,"Belarus, Latvia, Lithuania, Poland, Russian Federation, Ukraine","BRB, LVA, LTU, POL, RUS, UKR",Vulnerable,4000000.0,53.956,27.5756
382,Lombard,lombardo,"Italy, Switzerland","ITA, CHE",Definitely endangered,3500000.0,45.7215,9.3273
405,Romani,romaní,"Albania, Germany, Austria, Belarus, Bosnia and Herzegovina, Bulgaria, Croatia, Estonia, Finland, France, Greece, Hungary, Italy, Latvia, Lithuania, The former Yugoslav Republic of Macedonia, Netherlands, Poland, Romania, United Kingdom of Great Britain and Northern Ireland, Russian Federation, Slovakia, Slovenia, Switzerland, Czech Republic, Turkey, Ukraine, Serbia, Montenegro","ALB, DEU, AUT, BRB, BIH, BGR, HRV, EST, FIN, FRA, GRC, HUN, ITA, LVA, LTU, MKD, NLD, POL, ROU, GBR, RUS, SVK, SVN, CHE, CZE, TUR, UKR, SRB, MNE",Definitely endangered,3500000.0,46.3165,22.3681
2211,Yiddish (Israel),yiddish (Israel),Israel,ISR,Definitely endangered,3000000.0,32.0833,34.8333
1586,Gondi,gondí,India,IND,Vulnerable,2713790.0,19.5804,80.4418
1020,Limburgian-Ripuarian,limburgués-ripuarino,"Germany, Belgium, Netherlands","DEU, BEL, NLD",Vulnerable,2600000.0,50.7781,6.0864
1943,Quechua of Southern Bolivia,quechua boliviano meridional,Bolivia (Plurinational State of),BOL,Vulnerable,2300000.0,-18.0675,-65.7641
1565,Kumaoni,cumauní,"India, Nepal","IND, NPL",Vulnerable,2003783.0,29.4778,79.8486
755,Aymara,aymara,"Bolivia (Plurinational State of), Chile, Peru","BOL, CHL, PER",Vulnerable,2000000.0,-16.5835,-68.302
349,Emilian-Romagnol,emiliano,"Italy, San Marino","ITA, SMR",Definitely endangered,2000000.0,44.127,12.0739
399,Piedmontese,piamontés,Italy,ITA,Definitely endangered,2000000.0,45.2013,7.8662
1021,Venetan,veneciano,"Croatia, Italy, Slovenia","HRV, ITA, SVN",Vulnerable,2000000.0,45.4601,12.1948
1985,Zazaki,zaza,Turkey,TUR,Vulnerable,2000000.0,38.8824,40.4846
1591,Kurux (India),kuruj (India),India,IND,Vulnerable,1751489.0,22.1467,85.2758
2065,Tamajeq,tamacheq tahoua,Niger,NER,Vulnerable,1750000.0,17.2352,8.0859
1585,Tulu,tulú,India,IND,Vulnerable,1722768.0,12.0178,75.7067
1556,Kangdi,kangdi,India,IND,Definitely endangered,1700000.0,32.4356,76.1242
410,Scots,escocés,United Kingdom of Great Britain and Northern Ireland,GBR,Vulnerable,1500000.0,56.2189,-3.7683
1026,Torlak,torlak,"Albania, Bulgaria, The former Yugoslav Republic of Macedonia, Romania, Serbia","ALB, BGR, MKD, ROU, SRB",Vulnerable,1500000.0,42.9644,22.1374
1476,West Flemish,flamenco occidental,"Belgium, France, Netherlands","BEL, FRA, NLD",Vulnerable,1500000.0,51.0275,3.0541
334,Bashkir,baskir,Russian Federation,RUS,Vulnerable,1379727.0,54.7309,55.9863
1067,Chechen,checheno,Russian Federation,RUS,Vulnerable,1331844.0,43.1971,45.7031
338,Chuvash,chuvacho,Russian Federation,RUS,Vulnerable,1325382.0,56.1394,47.2412
1227,Meithei,mitei,India,IND,Vulnerable,1250000.0,24.7667,93.8946
1114,Tamang,tamang,"India, Nepal","IND, NPL",Vulnerable,1196639.0,27.7365,85.6858
1013,Quechua of Cuzco,quechua cuzqueño,Peru,PER,Vulnerable,1115000.0,-13.4537,-72.0098
1024,Eastern Slovak,eslovaco oriental,"Slovakia, Ukraine","SVK, UKR",Vulnerable,1000000.0,48.8068,21.7968
377,Ligurian,ligur,"France, Italy, Monaco","FRA, ITA, MCO",Definitely endangered,1000000.0,44.5748,8.7011
407,Rusyn,rutenio,"Hungary, Poland, Romania, Slovakia, Ukraine","HUN, POL, ROU, SVK, UKR",Vulnerable,1000000.0,48.4437,22.9394
1515,Talysh,talisí,"Azerbaijan, Iran (Islamic Republic of)","AZE, IRN",Vulnerable,1000000.0,38.814,48.6804
1577,Kui,kui,India,IND,Vulnerable,916222.0,19.5908,83.9575
1231,Khasi,jasí,India,IND,Vulnerable,912000.0,25.691,91.8676
1229,Bodo,bodo,India,IND,Vulnerable,900000.0,26.7554,92.8674
337,Campidanese,sardo campidanés,Italy,ITA,Definitely endangered,900000.0,39.2991,8.9868
1803,K'iche' (Guatemala),quiché (Guatemala),Guatemala,GTM,Vulnerable,890596.0,15.0309,-91.1485
989,Quechua of Ayacucho,quechua de Ayacucho,Peru,PER,Definitely endangered,850000.0,-13.1276,-74.2071
1117,Newar,nevarí,Nepal,NPL,Definitely endangered,825458.0,27.6981,85.3198
2222,Mon,mon,"Myanmar, Thailand","MMR, THA",Vulnerable,800000.0,16.4666,97.7833
1523,Polesian,polesio,"Belarus, Poland, Ukraine","BRB, POL, UKR",Vulnerable,800000.0,51.8629,23.9501
701,Tamaceq,tamacheq tahoua,Mali,MLI,Definitely endangered,800000.0,16.7992,-3.0102
1069,Avar,avar,Russian Federation,RUS,Vulnerable,784840.0,42.4801,46.8017
1211,Mundari,mundarí,India,IND,Vulnerable,750000.0,22.3297,86.0449
425,Welsh,galés,United Kingdom of Great Britain and Northern Ireland,GBR,Vulnerable,750000.0,52.4459,-3.5485
1202,Angika,anga,"India, Nepal","IND, NPL",Vulnerable,740892.0,24.7451,85.3124
1827,Q'eqchi' (Guatemala),cachí (Guatemala),Guatemala,GTM,Vulnerable,716101.0,15.4707,-90.3722
398,Picard,picardo,"Belgium, France","BEL, FRA",Severely endangered,700000.0,50.2331,2.7905
1228,Kokborok,kok borok,"Bangladesh, India","BGD, IND",Vulnerable,695000.0,23.7752,91.6918
415,Basque,euskera,"Spain, France","ESP, FRA",Vulnerable,660000.0,43.133,-2.0764
1065,Kabard-Cherkes,kabardái,"Russian Federation, Turkey","RUS, TUR",Vulnerable,650000.0,43.7393,43.4289
1559,Mandeali,mandeali,India,IND,Definitely endangered,611930.0,31.4099,76.9921
353,Friulian,friulano,Italy,ITA,Definitely endangered,600000.0,46.1037,13.1396
997,Quechua of Ancash and Huánuco,quechua de Ancash y de Huánuco,Peru,PER,Definitely endangered,600000.0,-9.4598,-77.1789
1947,Walloon,valón,"Belgium, France, Luxembourg","BEL, FRA, LUX",Definitely endangered,600000.0,50.4575,4.8559
1091,Mising,mising,India,IND,Definitely endangered,550000.0,26.9612,94.0539
1066,Ossete,osético,"Georgia, Russian Federation","GEO, RUS",Vulnerable,550000.0,42.9564,44.4946
1230,Mizo,lushai,India,IND,Vulnerable,529000.0,22.9988,92.9223
1070,Dargwa,dargínico,Russian Federation,RUS,Vulnerable,503523.0,42.1145,47.4938
331,Aromanian,arrumano,"Albania, Bulgaria, Greece, The former Yugoslav Republic of Macedonia, Serbia","ALB, BGR, GRC, MKD, SRB",Definitely endangered,500000.0,40.2292,21.1376
2485,Brahui,birahuí,"Iran (Islamic Republic of), Pakistan, Afghanistan","IRN, PAK, AFG",Vulnerable,500000.0,29.0369,66.5826
375,Languedocian,languedociano,France,FRA,Severely endangered,500000.0,43.8899,2.5378
1072,Lezgian,lezguio,"Azerbaijan, Russian Federation","AZE, RUS",Vulnerable,500000.0,41.4921,48.0541
1558,Mahasui,paharí mahasu,India,IND,Definitely endangered,496024.0,31.2738,77.1295
1118,Magar,magarí,Nepal,NPL,Definitely endangered,489383.0,28.0816,83.4301
1822,Mam (Guatemala),mam (Guatemala),Guatemala,GTM,Vulnerable,477717.0,14.9305,-91.9078
418,Udmurt,votiaco,Russian Federation,RUS,Definitely endangered,463837.0,57.2315,52.8662
1506,Huasteca Náhuatl,nahua de la Huasteca,Mexico,MEX,Vulnerable,463183.0,21.3835,-98.9902
1074,Kumyk,kumyko,Russian Federation,RUS,Vulnerable,458121.0,43.397,46.9775
508,Yakut,yakuto,Russian Federation,RUS,Vulnerable,456288.0,62.3496,130.8691
1801,Kaqchikel (Guatemala),cachiquel (Guatemala),Guatemala,GTM,Vulnerable,444954.0,14.7814,-90.7925
1165,Karbi,miquirés,India,IND,Vulnerable,420000.0,26.2934,93.2299
347,Eastern Mari,marí oriental,Russian Federation,RUS,Definitely endangered,414211.0,56.632,47.8784
1068,Ingush,inguso,Russian Federation,RUS,Vulnerable,405343.0,43.145,45.1043
350,Erzya,mordovo erzya,Russian Federation,RUS,Definitely endangered,400000.0,54.1302,45.4394
1212,Ho,ho,India,IND,Vulnerable,400000.0,21.637,86.4404
2165,Judezmo (Israel),sefardí (Israel),Israel,ISR,Severely endangered,400000.0,32.0872,34.7737
534,Lalo,lalo,China,CHN,Vulnerable,400000.0,25.383,99.9426
378,Limousin,lemosín,France,FRA,Severely endangered,400000.0,46.0579,1.8017
381,Logudorese,sardo logudorés,Italy,ITA,Definitely endangered,400000.0,40.1116,9.1845
626,Mapuche (Chile),mapuche (Chile),Chile,CHL,Definitely endangered,400000.0,-38.5653,-73.081
1503,Central Náhuatl,nahua central,Mexico,MEX,Vulnerable,395581.0,19.191,-99.0236
424,Moselle Franconian,franconio del Mosela,"Germany, Belgium, France, Luxembourg","DEU, BEL, FRA, LUX",Vulnerable,390000.0,49.6071,6.1248
964,Bantawa,bantawa,Nepal,NPL,Vulnerable,371056.0,27.0994,87.0048
1424,Santa,santa,China,CHN,Vulnerable,360000.0,35.5411,102.7935
1057,Mingrelian,mingrelio,Georgia,GEO,Definitely endangered,350000.0,42.4599,41.7205
426,West Frisian,frisón occidental,Netherlands,NLD,Vulnerable,350000.0,53.1006,5.6579
1113,Gurung,gurung,Nepal,NPL,Definitely endangered,338925.0,28.275,84.1782
295,Guajiro,guajiro,"Colombia, Venezuela (Bolivarian Republic of)","COL, VEN",Vulnerable,318500.0,11.8673,-71.9824
1075,Karachay-Balkar,karachay-balkar,Russian Federation,RUS,Vulnerable,302748.0,44.2137,42.8466
1064,Adyge,adiga,"Iraq, Israel, Jordan, The former Yugoslav Republic of Macedonia, Russian Federation, Syrian Arab Republic, Turkey","IRQ, ISR, JOR, MKD, RUS, SYR, TUR",Vulnerable,300000.0,44.9181,39.7485
469,Buryat (Trans-Baikal),buriato (transbaikálico),Russian Federation,RUS,Definitely endangered,300000.0,50.8336,109.5117
1574,Kurru,yerukala,India,IND,Definitely endangered,300000.0,16.6151,81.6284
1578,Kuvi,kuvi,India,IND,Definitely endangered,300000.0,18.9478,83.5839
1028,Limbu,limbu,"India, Nepal","IND, NPL",Definitely endangered,300000.0,27.096,87.7356
2452,Moroccan Judeo-Arabic (Israel),judeo-árabe marroquí (Israel),Israel,ISR,Definitely endangered,300000.0,32.0476,34.7552
401,Plautdietsch,bajo alemán,Ukraine,UKR,Definitely endangered,300000.0,47.0738,35.5545
1078,Pontic Greek,póntico,"Armenia, Georgia, Greece, Russian Federation, Turkey, Ukraine","ARM, GEO, GRC, RUS, TUR, UKR",Definitely endangered,300000.0,40.847,40.0149
1935,"Quichua (Cotopaxi, Tungurahua and Chimborazo)",quichua (sierra central),Ecuador,ECU,Definitely endangered,300000.0,-1.8673,-78.9257
1479,Waxiang,vasianhuá,China,CHN,Vulnerable,300000.0,28.5652,110.3576
1434,Oyrat,oirato,"China, Kyrgyzstan, Mongolia","CHN, KGZ, MNG",Definitely endangered,280000.0,46.195,88.7255
1563,Garhwali,garhwali,India,IND,Vulnerable,279500.0,30.0976,79.1235
1380,Bade,badé,Nigeria,NGA,Vulnerable,250000.0,12.801,11.1181
336,Breton,bretón,France,FRA,Severely endangered,250000.0,48.2246,-3.9331
352,Gascon,gascón,"Spain, France","ESP, FRA",Definitely endangered,250000.0,43.1811,-0.1428
2245,Phula (China),pula (China),China,CHN,Vulnerable,250000.0,22.6001,104.0004
1205,Sora,sora,India,IND,Vulnerable,250000.0,19.1244,83.2104
1119,Konyak,coñac,India,IND,Vulnerable,248000.0,26.9367,95.1745
1130,Ao,ao,India,IND,Vulnerable,243000.0,26.4361,94.6472
1234,Tuvan,tuva,"China, Mongolia, Russian Federation","CHN, MNG, RUS",Vulnerable,242754.0,51.7134,94.3945
1970,Nafusi,jabal nafusah,Libyan Arab Jamahiriya,LBY,Severely endangered,240000.0,32.6393,13.4252
2232,Suret,neo-arameo oriental,"Armenia, Iran (Islamic Republic of), Iraq, Syrian Arab Republic, Turkey","ARM, IRN, IRQ, SYR, TUR",Definitely endangered,240000.0,36.4477,43.2971
1592,Malto,malto,India,IND,Definitely endangered,224926.0,23.7853,85.4736
1600,Khowar,jovaro,Pakistan,PAK,Vulnerable,222800.0,35.8667,71.7956
2481,Maiya,khili,Pakistan,PAK,Vulnerable,220000.0,35.3151,72.908
373,Komi,komi,Russian Federation,RUS,Definitely endangered,217316.0,62.3087,51.5917
365,Alpine Provençal,provenzal alpino,"France, Italy","FRA, ITA",Definitely endangered,200000.0,44.7467,6.6796
355,Gallo,gallo,France,FRA,Severely endangered,200000.0,47.931,-2.0544
1384,Gera,gera,Nigeria,NGA,Vulnerable,200000.0,10.5553,10.0579
1570,Irula,irula,India,IND,Vulnerable,200000.0,11.4369,76.5032
1204,Kharia,jariá,India,IND,Vulnerable,200000.0,21.8003,85.4956
847,Khorasani Turk,turco jorasaní,Iran (Islamic Republic of),IRN,Vulnerable,200000.0,36.6596,57.854
1210,Korku,koraku,India,IND,Vulnerable,200000.0,20.3034,80.2441
328,Moksha,mordovo moksha,Russian Federation,RUS,Definitely endangered,200000.0,54.1817,43.2751
7,Western Armenian (Middle East),armenio occidental (Oriente Medio),"Iraq, Lebanon, Syrian Arab Republic","IRQ, LBN, SYR",Definitely endangered,200000.0,33.884,35.5133
2225,Western Cham,chamo occidental,Cambodia,KHM,Vulnerable,200000.0,12.0333,105.4333
1258,Tshangla,changla,"Bhutan, China, India","BTN, CHN, IND",Vulnerable,193000.0,27.1275,91.9335
1161,Thado,chin tado,India,IND,Vulnerable,191000.0,24.4521,93.2354
389,Gagauz (Bessarabia),gagauso (Besarabia),"Republic of Moldova, Ukraine","MDA, UKR",Definitely endangered,180000.0,46.0922,28.7951
1557,Kului,paharí de Kullu,India,IND,Definitely endangered,170770.0,31.4403,77.1487
981,Adi,adi,"China, India","CHN, IND",Vulnerable,170000.0,28.3527,95.2294
1132,Lhota,lota,India,IND,Vulnerable,170000.0,26.1603,94.3725
977,Nyishi,nisi,India,IND,Vulnerable,170000.0,27.5277,93.0981
1898,Ngäbere (Panama),guaymí (Panamá),Panama,PAN,Vulnerable,169130.0,9.3395,-82.2428
1582,Kodagu,codagú,India,IND,Definitely endangered,166187.0,11.6952,75.9375
340,Corsican,corso,"France, Italy","FRA, ITA",Definitely endangered,160000.0,42.0819,9.0307
1253,Dzongkha,butanés,Bhutan,BTN,Vulnerable,160000.0,27.44,89.6731
368,Kalmyk,kalmiko,Russian Federation,RUS,Definitely endangered,153602.0,46.2026,45.8239
1071,Lak,laco,Russian Federation,RUS,Vulnerable,153373.0,42.0125,47.2521
332,Asturian-Leonese,astur-leonés,"Spain, Portugal","ESP, PRT",Definitely endangered,150000.0,42.7954,-5.6689
376,Latgalian,letón,"Latvia, Russian Federation","LVA, RUS",Vulnerable,150000.0,56.1822,27.1362
404,Provençal,provenzal,France,FRA,Severely endangered,150000.0,43.5485,6.1083
1174,Rabha,rabha,India,IND,Vulnerable,150000.0,25.9284,90.9777
1996,Tamzabit,tumzabí,Algeria,DZA,Vulnerable,150000.0,32.4816,3.6694
1128,Sherpa,sherpa,"China, India, Nepal","CHN, IND, NPL",Vulnerable,143693.0,27.739,86.839
1154,Tangkhul,tangkhul,India,IND,Vulnerable,142000.0,25.0358,94.4824
1826,Q'aanjob'al,canjobalés,Guatemala,GTM,Vulnerable,139830.0,15.6019,-91.4441
1569,Badaga,badaga,India,IND,Definitely endangered,134514.0,11.3642,76.5266
1140,Angami,angami,India,IND,Vulnerable,132000.0,25.7553,94.1308
1056,Laz,laz,"Georgia, Turkey","GEO, TUR",Definitely endangered,130000.0,41.2736,41.2646
1073,Tabasaran,tabasarano,Russian Federation,RUS,Vulnerable,128391.0,41.8081,47.9882
1553,Chambeali,chameali,India,IND,Definitely endangered,126589.0,32.9072,76.5307
1076,Abkhaz,abjaso,"Georgia, Russian Federation, Turkey","GEO, RUS, TUR",Vulnerable,125000.0,43.133,40.8471
1129,Phom,phom,India,IND,Vulnerable,123000.0,26.7799,94.9493
1588,Kolami,colami,India,IND,Definitely endangered,121855.0,20.5093,78.1787
784,Navajo,navajo,United States of America,USA,Vulnerable,120000.0,35.8044,-108.475
408,Sassarese,sasarés,Italy,ITA,Definitely endangered,120000.0,40.6139,8.6132
655,Tamahaq (Algeria),tamahaq (Argelia),Algeria,DZA,Vulnerable,120000.0,22.8369,5.5371
1590,Konda,conda-dora,India,IND,Definitely endangered,118597.0,18.2763,82.9385
916,Sierra Totonac,totonacano de Sierra,Mexico,MEX,Severely endangered,118367.0,20.2461,-97.6586
1564,Jaunsari,jaunsari,India,IND,Definitely endangered,114733.0,30.4859,78.0908
1167,Dimasa,dimasa,India,IND,Vulnerable,112000.0,24.7368,92.9003
1179,Ladakhi,ladakhi,"China, India","CHN, IND",Vulnerable,105000.0,34.0617,77.5909
1429,Salar,salar,China,CHN,Vulnerable,104503.0,36.2752,102.4584
1136,Simi,simí,India,IND,Vulnerable,104000.0,25.9777,94.5922
904,Phurhepecha,purépecha,Mexico,MEX,Vulnerable,102988.0,19.3111,-102.041
342,Crimean Tatar (Crimea),tártaro crimeano (Crimea),Ukraine,UKR,Severely endangered,100000.0,45.3212,34.3212
451,Dagur (Nonni),daguro (Nonni),China,CHN,Definitely endangered,100000.0,47.9163,124.1235
366,Francoprovençal,francoprovenzal,"France, Italy, Switzerland","FRA, ITA, CHE",Definitely endangered,100000.0,45.7828,6.9982
356,Gallurese,sardo galurés,Italy,ITA,Definitely endangered,100000.0,40.8802,9.4482
1754,Mapuche (Argentina),mapuche (Argentina),Argentina,ARG,Severely endangered,100000.0,-40.0791,-71.0156
1620,Mehri,mahri,"Oman, Yemen","OMN, YEM",Definitely endangered,100000.0,16.5993,52.8057
1891,Miskito (Nicaragua),misquito (Nicaragua),Nicaragua,NIC,Vulnerable,100000.0,12.4001,-83.7332
1233,Ordos,ordoso,China,CHN,Definitely endangered,100000.0,39.1641,108.1054
1944,Quechua of Northern Bolivia,quechua boliviano septentrional,Bolivia (Plurinational State of),BOL,Vulnerable,100000.0,-15.3649,-69.0518
96,Suba,suba,"Kenya, United Republic of Tanzania","KEN, TZA",Vulnerable,100000.0,-0.9942,34.519
1861,Garífuna (Honduras),garífuna (Honduras),Honduras,HND,Vulnerable,98000.0,15.6754,-88.1476
292,Embera (Colombia),embera  (Colombia),Colombia,COL,Vulnerable,95000.0,6.1624,-76.8383
1162,Kabui,kabui,India,IND,Vulnerable,95000.0,24.7218,93.6584
760,Shughni,chugní,"Tajikistan, Afghanistan","TJK, AFG",Vulnerable,95000.0,37.4879,71.5374
397,Permyak,permiaco,Russian Federation,RUS,Definitely endangered,94328.0,59.204,54.5361
1825,Poqomchi',Poqomchí,Guatemala,GTM,Vulnerable,92941.0,15.3757,-90.4288
1135,Yimchungru,yimchungru,India,IND,Vulnerable,92000.0,25.9629,94.9713
669,Nogay (Caucasus),nogái (Cáucaso),Russian Federation,RUS,Definitely endangered,90020.0,43.8028,46.2744
700,Heiban,heibán,Sudan,SDN,Vulnerable,90000.0,10.8575,30.2371
1930,Quichua (Cañar and Azuay),quichua (Cañar y Azuay),Ecuador,ECU,Severely endangered,90000.0,-2.6577,-78.8378
932,Mezquital Otomí,otomí del valle de Mezquital,Mexico,MEX,Definitely endangered,88789.0,20.4831,-99.217
940,Eastern Mazahua,mazahua oriental,Mexico,MEX,Definitely endangered,88001.0,19.7129,-99.9515
1599,Burushaski,buruchaski,Pakistan,PAK,Vulnerable,87000.0,35.909,74.2153
928,Central Otomí,otomí central,Mexico,MEX,Definitely endangered,84593.0,19.4661,-99.5944
1141,Chokri,chokrí,India,IND,Vulnerable,84000.0,25.8691,94.7131
1133,Sangtam,sangtam,India,IND,Vulnerable,84000.0,26.6032,94.9603
1791,Ixil (Guatemala),ijilo (Guatemala),Guatemala,GTM,Vulnerable,83574.0,15.4849,-91.0358
1777,Achi',achí,Guatemala,GTM,Vulnerable,82640.0,15.0845,-90.4888
1686,Yem,yemsa,Ethiopia,ETH,Vulnerable,81613.0,7.6347,37.3205
1144,Mao,mao,India,IND,Vulnerable,81000.0,25.5027,94.2681
1347,Arbëresh,arberés,Italy,ITA,Definitely endangered,80000.0,40.9321,14.8645
1765,Lari,lari,Iran (Islamic Republic of),IRN,Definitely endangered,80000.0,27.8585,54.8547
641,Páez,páez,Colombia,COL,Definitely endangered,80000.0,2.8237,-76.3117
2303,Quechua of Santiago del Estero,quechua de Santiago del Estero,Argentina,ARG,Definitely endangered,80000.0,-26.7848,-63.6767
1058,Svan,svan,Georgia,GEO,Definitely endangered,80000.0,43.0207,42.3193
2236,Tai Daeng,taidaén,"Lao People's Democratic Republic, Viet Nam","LAO, VNM",Vulnerable,80000.0,19.8833,104.6166
2163,Taznatit,taznatit,Algeria,DZA,Severely endangered,80000.0,29.3413,0.3955
2179,Razihi,razihi,Yemen,YEM,Definitely endangered,75000.0,16.8834,43.2655
1379,Wakhi,vakí,"China, Pakistan, Tajikistan, Afghanistan","CHN, PAK, TJK, AFG",Definitely endangered,75000.0,37.1603,74.9047
1568,Bishnupriya Manipuri Creole,manipurí,"Bangladesh, India","BGD, IND",Vulnerable,72899.0,24.297,92.4499
1713,Acheron,acheron,Sudan,SDN,Severely endangered,70000.0,10.809,30.2453
702,Maori,maorí,New Zealand,NZL,Vulnerable,70000.0,-38.4105,177.3632
2237,Tai Neua,tainuá,Lao People's Democratic Republic,LAO,Vulnerable,70000.0,20.5166,104.3166
1567,Bhadravahi,bhadri,"India, Pakistan","IND, PAK",Definitely endangered,66918.0,33.5413,76.333
1562,Kinnauri,kinaurí,India,IND,Definitely endangered,65097.0,31.541,78.3764
1330,Gallo-Sicilian,galo-siciliano,Italy,ITA,Definitely endangered,65000.0,38.0167,14.5994
1594,Kurux (Bangladesh),kuruj (Bangladesh),Bangladesh,BGD,Vulnerable,65000.0,25.8196,88.9672
1831,Tz'utujil,zutuguilés,Guatemala,GTM,Definitely endangered,63237.0,14.6394,-91.2301
2350,Chamorro,chamorro,Guam (U.S.A.),GUM,Vulnerable,62500.0,13.4323,144.7338
741,Ashaninka (Peru),asháninca,Peru,PER,Vulnerable,62468.0,-10.6929,-74.3444
1131,Chang,chang,India,IND,Vulnerable,62000.0,26.2934,94.9493
1897,Kuna (Panama),kuna (Panamá),Panama,PAN,Vulnerable,61703.0,9.5983,-79.6334
1554,Churahi,churahi,India,IND,Definitely endangered,61199.0,33.1835,76.5747
1155,Nruanghmei,rongmei,India,IND,Vulnerable,61000.0,24.9661,93.5375
1139,Rengma,rengma,India,IND,Vulnerable,61000.0,25.958,94.2462
1027,Faroese,faroés,Faroe Islands,FRO,Vulnerable,60000.0,62.0112,-6.7785
2439,Northern Tujia,tujia septentrional,China,CHN,Severely endangered,60000.0,28.828,109.5904
2480,Torwali,torvalí,Pakistan,PAK,Definitely endangered,60000.0,35.5833,72.5
1787,Chuj (Guatemala),chuj (Guatemala),Guatemala,GTM,Vulnerable,59048.0,15.8259,-91.4783
1186,Kachari,kachari,India,IND,Definitely endangered,59000.0,25.2844,93.2189
411,Scottish Gaelic,gaélico escocés,United Kingdom of Great Britain and Northern Ireland,GBR,Definitely endangered,58552.0,58.1011,-6.7675
1504,Sierra de Puebla Náhuatl,nahua de la sierra de Puebla,Mexico,MEX,Definitely endangered,57189.0,19.6223,-97.8149
643,Limonese Creole,criollo limonense,Costa Rica,CRI,Definitely endangered,55000.0,9.9916,-83.0316
370,Kashubian,casubio,Poland,POL,Severely endangered,53000.0,54.2267,18.1713
481,Khakas,jacaso,Russian Federation,RUS,Definitely endangered,52217.0,53.7746,90.3735
1587,Parji,duruwa,India,IND,Critically endangered,51216.0,18.5629,82.8039
1352,Arvanitika,arvanitika,Greece,GRC,Severely endangered,50000.0,38.1863,23.6096
507,Buryat (Cis-Baikal),buriato (cisbaikálico),Russian Federation,RUS,Severely endangered,50000.0,52.7961,104.8809
458,Buryat (Manchuria),buriato (Manchuria),"China, Mongolia","CHN, MNG",Definitely endangered,50000.0,49.8096,119.7509
2261,Cuona Menba,monpa de Cuona,"Bhutan, China, India","BTN, CHN, IND",Vulnerable,50000.0,26.8279,95.3623
2229,Eastern Cham,chamo oriental,Viet Nam,VNM,Definitely endangered,50000.0,10.7833,108.0833
1232,Hmar,hmar,India,IND,Vulnerable,50000.0,24.577,93.3178
1422,Huzhu Monguor,monguor de Huzhu,China,CHN,Severely endangered,50000.0,36.7608,102.4255
1159,Paite,chin paite,India,IND,Vulnerable,50000.0,24.1968,93.3563
1929,Quichua (Imbabura),quichua (Imbabura),Ecuador,ECU,Definitely endangered,50000.0,0.1757,-78.2006
1949,Soqotri,soqotrí,Yemen,YEM,Severely endangered,50000.0,12.5331,53.767
462,Southern Altay,altái meridional,Russian Federation,RUS,Definitely endangered,50000.0,51.069,86.5942
1475,Transylvanian Saxon,sajón de Transilvania,Romania,ROU,Severely endangered,50000.0,46.214,24.2413
1986,Turoyo,turoyo,"Syrian Arab Republic, Turkey","SYR, TUR",Severely endangered,50000.0,37.405,41.3745
422,Võro-Seto,vorû setu,"Estonia, Russian Federation","EST, RUS",Definitely endangered,50000.0,57.8096,27.29
687,West Greenlandic,groenlandés occidental,Greenland (Kingdom of Denmark),GRL,Vulnerable,50000.0,64.1681,-51.7236
1494,Western Armenian (Turkey),armenio occidental (Turquía),Turkey,TUR,Definitely endangered,50000.0,41.0213,28.9324
122,Zaramo,zalamo / saramo,United Republic of Tanzania,TZA,Definitely endangered,50000.0,-6.922,39.2409
2180,Zenatiya,zenatiya,Algeria,DZA,Critically endangered,50000.0,35.5702,1.8099
915,Papantla Totonac,totonaco papantla,Mexico,MEX,Definitely endangered,49748.0,20.4477,-97.32
1108,Wancho,wancho,India,IND,Vulnerable,49000.0,26.9759,95.4656
1213,Bhumji,bhumji,India,IND,Vulnerable,47000.0,21.8003,86.8139
2241,Cosung (China),cosung (China),China,CHN,Definitely endangered,47000.0,22.6833,102.6666
2240,Cosung (Viet Nam),cosung (Vietnam),Viet Nam,VNM,Definitely endangered,47000.0,22.6166,102.75
2249,Baheng (China),baheng (China),China,CHN,Vulnerable,45000.0,26.19,110.24
60,Lumun,lomón,Sudan,SDN,Definitely endangered,45000.0,10.8387,30.0338
1931,Quichua (Loja),quichua (Loja),Ecuador,ECU,Severely endangered,45000.0,-3.6236,-79.2388
1025,Chamling,chamlingo,Nepal,NPL,Definitely endangered,44093.0,27.0499,86.7329
362,Irish,irlandés,"Ireland, United Kingdom of Great Britain and Northern Ireland","IRL, GBR",Definitely endangered,44000.0,53.7876,-9.1845
1329,Reshe,reshe,Nigeria,NGA,Vulnerable,44000.0,10.8791,4.6115
927,Sierra Otomí,otomí de la Sierra,Mexico,MEX,Vulnerable,43468.0,20.1021,-97.622
134,Phuthi,suací,Lesotho,LSO,Definitely endangered,43000.0,-29.3791,28.2838
704,Rarotongan,rarotongano,Cook Islands,COK,Vulnerable,43000.0,-21.2343,-159.7837
1804,Khalaj,jalái,Iran (Islamic Republic of),IRN,Vulnerable,42100.0,34.3751,50.3063
1670,Dungan,dungano,"Kazakhstan, Kyrgyzstan","KAZ, KGZ",Definitely endangered,41000.0,42.4518,78.4643
1143,Kheza,khezha,India,IND,Vulnerable,41000.0,25.6811,94.367
1304,Jola-Kassa,kasa,Senegal,SEN,Vulnerable,40850.0,13.1089,-15.8999
1447,Satār,satar,Nepal,NPL,Vulnerable,40260.0,26.5541,87.918
1927,Guaraní Boliviano,guaraní boliviano,"Argentina, Bolivia (Plurinational State of)","ARG, BOL",Vulnerable,40000.0,-20.1694,-63.8525
1208,Gutob,gutob,India,IND,Vulnerable,40000.0,18.7086,83.5839
1247,Kheng,kheng,Bhutan,BTN,Vulnerable,40000.0,27.0786,91.0272
70,Laro,laro,Sudan,SDN,Definitely endangered,40000.0,10.7685,29.902
986,Minyong,minyong,India,IND,Vulnerable,40000.0,28.2632,95.0537
1137,Mru,mru,Myanmar,MMR,Severely endangered,40000.0,21.7748,92.2741
149,Patani Malay,patani,Thailand,THA,Vulnerable,40000.0,6.6482,100.0387
998,"Quechua of Cajatambo, Pasco and northern Junín","quechua de Cajatambo, de Paso y de Junín septentrional.",Peru,PER,Severely endangered,40000.0,-10.6147,-76.506
1275,Quichua (Napo),quichua (Napo),Ecuador,ECU,Definitely endangered,40000.0,-0.6371,-77.1459
1104,Tangsa,tangsa,India,IND,Vulnerable,40000.0,27.4059,96.427
2210,Tetserret,tetserret,Niger,NER,Severely endangered,40000.0,15.4907,6.2072
734,Awajun,aguaruna,Peru,PER,Vulnerable,39000.0,-4.3464,-77.8271
1134,Khiamngan,khiamngan,India,IND,Vulnerable,38000.0,26.0518,95.1031
1717,Ngile,taloca,Sudan,SDN,Severely endangered,38000.0,10.7901,29.8635
2235,Phunoi,phunoi,Lao People's Democratic Republic,LAO,Vulnerable,37311.0,21.6833,102.1
905,Lower Mixe,mixé bajo,Mexico,MEX,Vulnerable,37000.0,16.9616,-95.093
1151,Maram,maram,India,IND,Vulnerable,37000.0,25.185,93.9715
427,Western Mari,marí occidental,Russian Federation,RUS,Severely endangered,36822.0,56.3317,46.5545
1082,Chepang,chepang,Nepal,NPL,Vulnerable,36807.0,27.7552,84.8144
1356,Chontal Tabasco,chontal de Tabasco,Mexico,MEX,Severely endangered,36514.0,17.7607,-92.5936
2414,Muji,muyi,China,CHN,Definitely endangered,36500.0,23.6,102.7333
1778,Akatek (Guatemala),canjobalés occidental (Guatemala),Guatemala,GTM,Vulnerable,35763.0,15.5724,-91.4218
1491,Huichol,huichol,Mexico,MEX,Vulnerable,35724.0,22.65,-103.5833
406,Romansh,romanche,Switzerland,CHE,Definitely endangered,35095.0,46.5777,9.6954
938,Apatani,apatani,India,IND,Vulnerable,35000.0,27.5228,93.8177
988,Galo,adi-galo,India,IND,Vulnerable,35000.0,28.1688,94.7433
1218,Korwa,korwa,India,IND,Vulnerable,35000.0,22.4922,84.1552
759,Shuar chicham,shuar chicham,Ecuador,ECU,Definitely endangered,35000.0,-2.8826,-78.0303
742,Ticuna,ticuna,"Brazil, Colombia, Peru","BRA, COL, PER",Definitely endangered,35000.0,-4.3464,-70.0048
999,Wanka Quechua,quechua de Huanca,Peru,PER,Severely endangered,35000.0,-12.136,-75.2453
296,Sikuani,guahibo,"Colombia, Venezuela (Bolivarian Republic of)","COL, VEN",Vulnerable,34614.0,3.4256,-68.8183
1800,Jakaltek (Guatemala),jacalteko (Guatemala),Guatemala,GTM,Definitely endangered,34038.0,15.6685,-91.7111
1147,Liangmai,liangmai,India,IND,Vulnerable,34000.0,25.2794,93.6694
1150,Zeme,zeme,India,IND,Vulnerable,34000.0,25.5027,93.5595
1277,Highland Mazatec,mazateco de la sierra,Mexico,MEX,Vulnerable,33859.0,18.1307,-96.8436
1116,Thangmi,thangmi,Nepal,NPL,Definitely endangered,33500.0,27.6969,86.0057
1106,Nocte,nocte,India,IND,Vulnerable,33000.0,27.1618,95.7952
1490,Mayo,mayo,Mexico,MEX,Critically endangered,32869.0,26.9114,-109.6271
2309,Lauje,lauje,Indonesia,IDN,Vulnerable,32000.0,-0.4531,119.9816
431,Danuwar,danvar,Nepal,NPL,Severely endangered,31849.0,26.9661,86.3223
1561,Sirmaudi,sirmauri,India,IND,Critically endangered,31144.0,30.9823,77.1569
1077,Abaza,abaza,"Russian Federation, Turkey","RUS, TUR",Definitely endangered,31000.0,44.1556,41.9368
1171,Koch,koch,India,IND,Definitely endangered,31000.0,25.7603,90.3955
2030,Amis,ami,China,CHN,Vulnerable,30000.0,23.4456,121.4483
2525,Biak,biaco,Indonesia,IDN,Vulnerable,30000.0,-0.3076,131.2207
1245,Bumthang,kebumtamp,Bhutan,BTN,Vulnerable,30000.0,27.492,90.7159
1350,Burgenland Croatian,serbocroata de Burgenland,"Austria, Hungary, Slovakia","AUT, HUN, SVK",Definitely endangered,30000.0,47.8435,16.5179
1768,Dzhidi,dzhidi,Iran (Islamic Republic of),IRN,Definitely endangered,30000.0,33.5139,48.0102
2451,Judeo-Berber (Israel),judeo-bereber (Israel),Israel,ISR,Severely endangered,30000.0,31.6767,34.5684
1120,Kham,jamí,Nepal,NPL,Definitely endangered,30000.0,28.4321,82.9635
565,Ladin,ladino,Italy,ITA,Definitely endangered,30000.0,46.5531,11.8597
440,Lepcha,lepcha,"Bhutan, India, Nepal","BTN, IND, NPL",Definitely endangered,30000.0,27.1153,88.4687
2427,Maonan,maonan,China,CHN,Vulnerable,30000.0,24.8341,107.577
2221,"Mok (Myanmar, Thailand)","mok (Myanmar, Tailandia)","Myanmar, Thailand","MMR, THA",Definitely endangered,30000.0,21.7333,99.7666
1715,Moro,moro,Sudan,SDN,Definitely endangered,30000.0,10.8872,30.1904
2425,Mulam,mulamo,China,CHN,Vulnerable,30000.0,24.6341,108.2895
393,North Saami,saamí septentrional,"Finland, Norway, Russian Federation, Sweden","FIN, NOR, RUS, SWE",Definitely endangered,30000.0,68.9099,22.9394
1012,Quechua of Cajamarca,quechua de Cajamarca,Peru,PER,Severely endangered,30000.0,-7.1772,-78.673
1276,Quichua (Pastaza),quichua (Pastaza),Ecuador,ECU,Definitely endangered,30000.0,-1.7575,-76.8603
1378,Rushani,rusaní,"Tajikistan, Afghanistan","TJK, AFG",Definitely endangered,30000.0,37.8705,71.5979
979,Tagin,tagin,India,IND,Vulnerable,30000.0,28.038,94.2022
2321,Tialo,tomini,Indonesia,IDN,Vulnerable,30000.0,0.4888,120.8935
2181,Tidikelt,tidikelt,Algeria,DZA,Critically endangered,30000.0,26.8828,2.5488
659,Toba,toba,Argentina,ARG,Definitely endangered,30000.0,-25.958,-59.0625
503,Tundra Nenets,néncico de la tundra,Russian Federation,RUS,Definitely endangered,30000.0,67.5001,67.7856
421,Vojvodina Rusyn,rutenio de Voivodina,"Croatia, Serbia","HRV, SRB",Definitely endangered,30000.0,45.6351,19.1903
2408,Wuse,wusehuá,China,CHN,Vulnerable,30000.0,24.878,109.1053
1035,Agul,agul,Russian Federation,RUS,Definitely endangered,29399.0,41.7518,47.6875
1036,Rutul,rutul,"Azerbaijan, Russian Federation","AZE, RUS",Definitely endangered,29383.0,41.5332,47.3181
1844,Bateri,bateri,Pakistan,PAK,Definitely endangered,29000.0,34.9073,72.8675
1146,Mzieme,mzieme,India,IND,Vulnerable,29000.0,25.6019,93.8891
1112,Ghale,ghale,Nepal,NPL,Vulnerable,28989.0,28.2501,84.718
907,Sierra Popoluca,popoluca de Sierra,Mexico,MEX,Vulnerable,28700.0,18.245,-94.76
1446,Kurux (Nepal),kuruj (Nepal),Nepal,NPL,Vulnerable,28615.0,26.6032,87.2259
1170,Deori,deori,India,IND,Definitely endangered,28000.0,27.1911,94.1528
1279,Soyaltepec Mazatec,mazateco de Soyaltepec,Mexico,MEX,Vulnerable,27524.0,18.2499,-96.3995
941,Western Mazahua,mazahua occidental,Mexico,MEX,Definitely endangered,27037.0,19.4372,-100.3552
1430,Sibe,xibo,China,CHN,Severely endangered,27000.0,43.6599,81.3427
1505,Isthmus Náhuatl,nahua del istmo,Mexico,MEX,Vulnerable,26632.0,18.2209,-94.8382
1105,Sunwar,sunwar,Nepal,NPL,Vulnerable,26611.0,27.3485,86.2337
1302,Mancagne,mancaña,Senegal,SEN,Vulnerable,26450.0,12.7743,-15.6967
1576,Gadaba,gadaba,India,IND,Critically endangered,26262.0,18.3858,82.7819
1513,Banat Bulgarian,búlgaro del Bánato,"Romania, Serbia","ROU, SRB",Definitely endangered,25000.0,45.4832,20.9069
1351,Csángó Hungarian,csángó,Romania,ROU,Severely endangered,25000.0,46.7925,27.1911
1215,Koda,koda,India,IND,Vulnerable,25000.0,22.1263,87.0776
1423,Minhe Monguor,monguor de Minhe,China,CHN,Definitely endangered,25000.0,36.4919,102.6452
1862,Miskito (Honduras),misquito (Honduras),Honduras,HND,Vulnerable,25000.0,15.3393,-84.6034
396,Olonetsian,olonetsiano,"Finland, Russian Federation","FIN, RUS",Definitely endangered,25000.0,61.1273,32.8765
1006,Saek,saek,"Lao People's Democratic Republic, Thailand","LAO, THA",Definitely endangered,25000.0,19.3166,104.7833
885,Sioux,dacota / siu,United States of America,USA,Vulnerable,25000.0,43.0588,-102.5244
699,Tamazight (Beni Iznassen),tamazight (Beni Iznassen),Morocco,MAR,Definitely endangered,25000.0,34.7506,-2.1917
1061,Tsakhur,tsajur,"Azerbaijan, Russian Federation","AZE, RUS",Definitely endangered,25000.0,41.6523,46.9775
1964,Warao,warao,"Guyana, Venezuela (Bolivarian Republic of)","GUY, VEN",Definitely endangered,25000.0,8.6027,-61.3806
1169,Majhi,bote-majhi,Nepal,NPL,Severely endangered,24664.0,27.9208,83.5082
1501,Jone,choni,China,CHN,Definitely endangered,24000.0,34.5947,103.5653
1037,Andi,andi,Russian Federation,RUS,Definitely endangered,23729.0,42.7308,46.2963
599,Guambiano,guambiano,Colombia,COL,Definitely endangered,23462.0,2.6138,-76.3906
1164,Anal,anal,India,IND,Vulnerable,23000.0,24.1517,93.9385
1802,Hawrami,hawrami,"Iran (Islamic Republic of), Iraq","IRN, IRQ",Definitely endangered,23000.0,35.4259,46.2551
1203,Juang,yuango,India,IND,Definitely endangered,23000.0,21.0742,85.6164
1173,Tiwa,tigua,India,IND,Definitely endangered,23000.0,25.7801,92.5927
1901,Embera (Panama),embera (Panamá),Panama,PAN,Vulnerable,22485.0,8.1179,-77.7429
1306,Ediamat,eyamat,Guinea-Bissau,GNB,Vulnerable,22025.0,12.2621,-16.5289
1178,Mara,chin mara,India,IND,Definitely endangered,22000.0,23.5237,92.9003
1157,Maring,naga maring,India,IND,Vulnerable,22000.0,24.6769,94.3835
1386,Polci cluster,polci,Nigeria,NGA,Definitely endangered,22000.0,9.9742,9.3328
1461,Sarikoli,sarikoli,China,CHN,Definitely endangered,22000.0,37.9463,75.1272
63,Krongo,crongo,Sudan,SDN,Definitely endangered,21688.0,10.585,29.8883
1779,Ashtiani,astianí,Iran (Islamic Republic of),IRN,Definitely endangered,21000.0,34.4861,51.0562
1799,Khunsari,junsarí,Iran (Islamic Republic of),IRN,Definitely endangered,21000.0,32.8795,51.6796
2300,Semnani,semnani,Iran (Islamic Republic of),IRN,Definitely endangered,21000.0,34.8679,53.4924
277,Plains Cree,clisteno de las llanuras,Canada,CAN,Vulnerable,20933.0,56.3544,-113.8345
1273,Higher Reservoir Mazatec,mazateco de la presa alto,Mexico,MEX,Vulnerable,20665.0,18.158,-96.7045
1280,Chilchotla Mazatec,mazateco de Chilchotla,Mexico,MEX,Vulnerable,20585.0,18.2934,-96.7029
955,"Zapotec of the Valleys, middle northwest",zapoteco del valle medio noroccidental,Mexico,MEX,Definitely endangered,20448.0,17.05,-96.6333
2443,Aluo,laka,China,CHN,Definitely endangered,20000.0,25.9368,102.1839
978,Bangni,bangni,India,IND,Vulnerable,20000.0,28.0331,93.0651
1990,Bru,bru,Thailand,THA,Definitely endangered,20000.0,15.3174,105.4938
1252,Cho-ca-nga-ca-kha,chocangacakha,Bhutan,BTN,Definitely endangered,20000.0,27.4107,91.2277
1448,Crimean Tatar (Dobruja),tártaro crimeano (Dobruja),"Bulgaria, Romania","BGR, ROU",Severely endangered,20000.0,43.9414,28.3062
436,Dhimal,dhimal,Nepal,NPL,Severely endangered,20000.0,26.6192,87.4635
1614,Griko (Salento),griko salentino,Italy,ITA,Severely endangered,20000.0,40.1578,18.2208
1878,Kaiowá Guarani,guaraní kaiowá,Brazil,BRA,Vulnerable,20000.0,-21.5812,-55.0759
327,Karelian (Karelia),carelio (Carelia),"Finland, Russian Federation","FIN, RUS",Definitely endangered,20000.0,63.0474,33.4616
1152,Khoirao,khoirao,India,IND,Vulnerable,20000.0,25.2198,94.1583
1185,Manchad,lahuli de Chamba,India,IND,Vulnerable,20000.0,32.6578,77.5415
1337,Mariupolitan Greek,mauropoliano,Ukraine,UKR,Severely endangered,20000.0,47.1364,37.5444
985,Padam,padam,India,IND,Vulnerable,20000.0,28.2463,95.3668
1965,Pemon (Venezuela),pemón (Venezuela),"Guyana, Venezuela (Bolivarian Republic of)","GUY, VEN",Vulnerable,20000.0,5.1347,-61.853
1995,Tacenwit,tacenwit,Algeria,DZA,Vulnerable,20000.0,36.5703,2.2892
1502,Tangwang,tangwang,China,CHN,Definitely endangered,20000.0,35.7643,102.8979
2090,Western Neo-Aramaic,neo-arameo sirio,Syrian Arab Republic,SYR,Definitely endangered,20000.0,33.8339,36.5405
1438,Yaghnobi,yagnobí,Tajikistan,TJK,Definitely endangered,20000.0,38.5632,68.4475
2224,Yaw,yos,Myanmar,MMR,Definitely endangered,20000.0,21.6,94.8333
1405,Yeyi,yeyi,Botswana,BWA,Definitely endangered,20000.0,-19.4562,23.2031
1680,Boro,boro,,,Definitely endangered,19878.0,10.3581,35.0024
384,Sorbian,sorbio,Germany,DEU,Definitely endangered,19500.0,51.5001,14.4744
1187,Biete,biete,India,IND,Definitely endangered,19000.0,25.6514,93.2409
1189,Hrangkhol,rancol,India,IND,Vulnerable,19000.0,24.1467,92.3071
1959,Terena,tereno,Brazil,BRA,Severely endangered,19000.0,-20.2841,-55.4638
1595,Kati,katí,"Pakistan, Afghanistan","PAK, AFG",Definitely endangered,18700.0,35.3845,71.3177
1092,Kulung,kulungo,Nepal,NPL,Vulnerable,18686.0,27.518,86.9375
617,Kaingang,kaingán,Brazil,BRA,Definitely endangered,18500.0,-28.1495,-52.4707
1278,Lowland Mazatec,mazateco del este bajo,Mexico,MEX,Vulnerable,18389.0,18.0801,-96.5236
1797,Vafsi,vafsí,Iran (Islamic Republic of),IRN,Definitely endangered,18000.0,34.0867,49.8861
1310,Bassari,basarí,Senegal,SEN,Vulnerable,17910.0,12.4419,-12.6617
1307,Bayot,bayot,Senegal,SEN,Vulnerable,17150.0,12.4218,-16.4149
1142,Pochuri,pochuri,India,IND,Vulnerable,17000.0,25.6712,94.779
1712,Tamahaq (Libya),tamahaq (Libia),Libyan Arab Jamahiriya,LBY,Definitely endangered,17000.0,24.9611,10.1733
276,Swampy Cree,clisteno occidental,Canada,CAN,Vulnerable,16685.0,53.9849,-97.7626
1583,Koraga,koraga,India,IND,Critically endangered,16665.0,11.6952,75.6738
1684,Oyda,oyda,Ethiopia,ETH,Vulnerable,16597.0,5.9438,36.6503
1560,Pangvali,paharí pangwalí,India,IND,Critically endangered,16285.0,33.4589,76.9152
654,Shipibo-Conibo,shipibo-conibo,Peru,PER,Definitely endangered,16085.0,-8.4289,-74.6411
109,Amba,amba,Uganda,UGA,Vulnerable,16000.0,0.6737,30.198
1051,Tsez,dido,Russian Federation,RUS,Definitely endangered,15356.0,42.2376,45.8734
1425,Bonan,bonan,China,CHN,Definitely endangered,15000.0,36.089,102.843
2246,Chrau,gro,Viet Nam,VNM,Definitely endangered,15000.0,10.5634,107.1496
1773,Dari,darí,Iran (Islamic Republic of),IRN,Definitely endangered,15000.0,31.8402,54.1625
1250,Dzala,dzalakha,Bhutan,BTN,Vulnerable,15000.0,27.7078,91.3623
2432,Ersu,ersu,China,CHN,Definitely endangered,15000.0,28.7778,102.1277
1180,Gangte,gangte,India,IND,Definitely endangered,15000.0,24.1968,93.587
24,Gurdu-Mbaaru,guruntum,Nigeria,NGA,Severely endangered,15000.0,9.7415,10.4534
1145,Ha-lung Tibetan,halung tibetano,Nepal,NPL,Definitely endangered,15000.0,27.6831,87.8256
2445,Hlersu,sansu,China,CHN,Vulnerable,15000.0,24.3789,102.046
2254,Juk,juk,Lao People's Democratic Republic,LAO,Definitely endangered,15000.0,15.3333,106.85
1681,Kwama,kwama,Ethiopia,ETH,Vulnerable,15000.0,9.5465,34.2059
2434,Laemae,lama,China,CHN,Severely endangered,15000.0,26.4179,98.7758
539,Lavua,lavüa,Thailand,THA,Definitely endangered,15000.0,18.4483,98.1848
648,Macushi (Brazil),macusí (Brasil),Brazil,BRA,Vulnerable,15000.0,3.7765,-61.1279
1361,Nahali,nahalí,India,IND,Definitely endangered,15000.0,21.4735,74.0258
2448,Naluo,naluo,China,CHN,Vulnerable,15000.0,26.5895,100.8506
2401,Nyoe,nyoe,Thailand,THA,Definitely endangered,15000.0,14.9102,104.6049
1524,O'odham (Akimel),papago (Akimel),United States of America,USA,Definitely endangered,15000.0,33.059,-112.0479
871,O'odham (Tohono),papago (Tohono),United States of America,USA,Definitely endangered,15000.0,31.9186,-111.8798
2031,Paiwan,paiwan,China,CHN,Vulnerable,15000.0,22.4313,120.7809
2428,Rao,rao,China,CHN,Definitely endangered,15000.0,25.871,107.0476
2294,Semai,semái,Malaysia,MYS,Severely endangered,15000.0,4.3039,101.445
1719,Shatt,shatt,Sudan,SDN,Severely endangered,15000.0,10.8117,29.7235
6,Siwi,siví,Egypt,EGY,Definitely endangered,15000.0,29.1905,25.5322
1289,Tagargrent,wargla,Algeria,DZA,Severely endangered,15000.0,30.9587,4.0209
2162,Tayurayt,tayurayt,Algeria,DZA,Vulnerable,15000.0,36.5648,1.9061
2324,Totoli,tolitoli,Indonesia,IDN,Vulnerable,15000.0,0.8953,120.2838
286,Aruaco,aruaco,Colombia,COL,Vulnerable,14799.0,10.0986,-73.5424
441,Yakkha,yakha,Nepal,NPL,Critically endangered,14648.0,27.1908,87.3358
1584,Kuruba,kurumba,India,IND,Critically endangered,14613.0,11.4369,76.3549
707,Tuamotuan,tuamotuano,French Polynesia (France),PYF,Definitely endangered,14400.0,-14.9354,-147.7455
62,Katla,catla,Sudan,SDN,Definitely endangered,14208.0,11.7329,29.3939
294,Garífuna (Belize),garífuna (Belize),Belize,BLZ,Vulnerable,14061.0,17.1833,-88.5833
1109,Thulung,thulungo,Nepal,NPL,Definitely endangered,14034.0,27.4534,86.6423
1190,Bawm,chin bom,"Bangladesh, India","BGD, IND",Definitely endangered,14000.0,22.1874,92.6477
1666,Guajajara,guajajara,Brazil,BRA,Vulnerable,14000.0,-4.8282,-46.8017
703,Niuean,niue,Niue,NIU,Definitely endangered,14000.0,-19.0491,-169.8706
2574,Uhunduni,uhunduní,Indonesia,IDN,Vulnerable,14000.0,-4.2054,137.031
1300,Gusilay,gusilay,Senegal,SEN,Vulnerable,13950.0,12.7019,-16.4382
1816,Xavante,xavanté,Brazil,BRA,Vulnerable,13303.0,-14.4832,-53.5305
2304,Dondo,dondo,Indonesia,IDN,Vulnerable,13000.0,0.747,120.4266
1168,Khampti,jamtí,India,IND,Vulnerable,13000.0,27.8827,96.5093
11,Nalu,nalu,Guinea,GIN,Definitely endangered,13000.0,10.9523,-14.7629
1721,Tagoi,tagoí,Sudan,SDN,Severely endangered,13000.0,10.8252,30.1657
71,Karko,karko,Sudan,SDN,Definitely endangered,12986.0,11.964,29.4186
939,San Mateo del Mar Huave,huave de San Mateo del Mar,Mexico,MEX,Vulnerable,12667.0,16.2,-94.9833
1751,Q'eqchi' (Belize),cachí (Belize),Belize,BLZ,Vulnerable,12366.0,16.8107,-88.3999
52,Kadaru,kadaru,Sudan,SDN,Definitely endangered,12360.0,12.1789,30.2398
1286,Mazatlán Mazatec,mazateco de Mazatlán,Mexico,MEX,Vulnerable,12340.0,18.033,-96.8999
1309,Badiaranke,badiara / badyara,Guinea,GIN,Severely endangered,12205.0,12.4043,-13.5736
2327,Alune,alune,Indonesia,IDN,Vulnerable,12000.0,-3.0637,128.3752
1606,Bangani,bangani,India,IND,Critically endangered,12000.0,29.8692,79.0686
1046,Chamalal,chamalal,Russian Federation,RUS,Definitely endangered,12000.0,42.5712,46.0739
2238,Chru,cru,Viet Nam,VNM,Vulnerable,12000.0,11.4666,109.05
1090,Hill Miri,hill miri,India,IND,Definitely endangered,12000.0,27.7078,94.0374
2446,Jinuo,yinuo,China,CHN,Definitely endangered,12000.0,21.4758,101.3111
2435,Muya,muya,China,CHN,Vulnerable,12000.0,30.2593,101.7497
556,Samei,samei,China,CHN,Severely endangered,12000.0,25.0756,103.0133
2617,Tajio,tajio,Indonesia,IDN,Vulnerable,12000.0,-0.0954,120.0173
2618,Tobada',tobada',Indonesia,IDN,Extinct,12000.0,-2.019,119.4708
1333,Yurt Tatar,tártaro de yurt,Russian Federation,RUS,Definitely endangered,12000.0,46.3943,48.3288
1489,Yaqui (Mexico),yaqui (México),Mexico,MEX,Vulnerable,11806.0,27.6436,-110.296
1784,Ch'orti' (Guatemala),chortí (Guatemala),Guatemala,GTM,Definitely endangered,11734.0,14.968,-89.2905
919,Filomeno Mata Totonac,totonacano filomeno mata-coahuillán,Mexico,MEX,Vulnerable,11710.0,20.198,-97.7022
917,Northern Totonac,totonacano septentrional,Mexico,MEX,Critically endangered,11529.0,20.2741,-97.955
1733,Komo,como,"Ethiopia, Sudan","ETH, SDN",Definitely endangered,11500.0,9.0804,34.0905
19,Tuwuli,bowiri,Ghana,GHA,Vulnerable,11400.0,7.0572,0.3845
1824,Poqomam,Poqomam,Guatemala,GTM,Definitely endangered,11273.0,14.6455,-89.7274
1084,Idu,chulikata,"China, India","CHN, IND",Definitely endangered,11101.0,28.6496,95.8419
683,Kari'ña (Venezuela),galibi (Venezuela),Venezuela (Bolivarian Republic of),VEN,Severely endangered,11000.0,8.4941,-64.0942
731,Machiguenga,machiguenga,Peru,PER,Definitely endangered,11000.0,-11.8888,-72.9052
1963,Piaroa (Venezuela),piaroa (Venezuela),Venezuela (Bolivarian Republic of),VEN,Vulnerable,11000.0,4.5435,-66.7089
714,Tuvaluan,tuvaluano,Tuvalu,TUV,Definitely endangered,11000.0,-8.5049,179.187
322,Waunana (Colombia),waumeo (Colombia),Colombia,COL,Vulnerable,11000.0,4.2806,-77.0581
1296,Noon,noono,Senegal,SEN,Vulnerable,10925.0,14.8173,-16.5234
1102,Sampang,sampang,Nepal,NPL,Vulnerable,10810.0,27.257,86.9444
690,Central Alaskan Yupik (2),yupí alasquiano central (2),United States of America,USA,Vulnerable,10400.0,61.4387,-160.4882
691,Central Alaskan Yupik (Nuniak Island),yupí alasquiano central (isla de Nunivak),United States of America,USA,Vulnerable,10400.0,59.8889,-166.289
2665,Bukiyip,arapeso montañés,Papua New Guinea,PNG,Vulnerable,10304.0,-3.4256,143.0886
2610,Saparua,saparua,Indonesia,IDN,Definitely endangered,10216.0,-3.5757,128.6464
1083,Darai,darai,Nepal,NPL,Severely endangered,10210.0,27.9264,84.331
1303,Bandial,bandal,Senegal,SEN,Vulnerable,10125.0,12.5317,-16.1553
55,Bongo,bongo,Sudan,SDN,Definitely endangered,10084.0,6.1405,31.7999
1484,Northwestern Tarahumara,tarahumara noroccidental,Mexico,MEX,Vulnerable,10031.0,27.9169,-107.0552
1343,Algherese Catalan,alguerés,Italy,ITA,Definitely endangered,10000.0,40.5638,8.3276
330,Aragonese,aragonés,Spain,ESP,Definitely endangered,10000.0,42.2935,-0.4394
2430,Baima,baima,China,CHN,Vulnerable,10000.0,33.1531,103.8696
1678,Bukharic,bukárico,Uzbekistan,UZB,Definitely endangered,10000.0,39.8043,64.4224
2029,Bunun,bunún,China,CHN,Vulnerable,10000.0,23.3624,121.1077
119,Burunge,burunguí,United Republic of Tanzania,TZA,Vulnerable,10000.0,-4.7297,35.7769
743,Chayahuita,chayahuita,Peru,PER,Definitely endangered,10000.0,-5.3425,-76.6955
903,Cherokee (Oklahoma),cheroki (Oklahoma),United States of America,USA,Definitely endangered,10000.0,36.7544,-98.3569
344,Dalecarlian,dalecarliano,Sweden,SWE,Definitely endangered,10000.0,61.2385,14.0295
605,"Huitoto (Colombia, Peru)","huitoto (Colombia, Perú)","Colombia, Peru","COL, PER",Definitely endangered,10000.0,-3.0308,-71.8066
2173,Hulaula (Israel),hulaulá (Israel),Israel,ISR,Severely endangered,10000.0,32.2128,34.9118
139,Karang,karango,Chad,TCD,Vulnerable,10000.0,8.3093,15.3588
1516,Karelian (Tver),carelio (Tver),Russian Federation,RUS,Definitely endangered,10000.0,58.1533,36.101
1298,Karone,karon,Senegal,SEN,Vulnerable,10000.0,12.7769,-16.7733
1055,Kryz,kryts,Azerbaijan,AZE,Severely endangered,10000.0,41.1455,48.164
300,"Kurripako (Colombia, Venezuela)","curripaco (Colombia, Venezuela)","Colombia, Venezuela (Bolivarian Republic of)","COL, VEN",Definitely endangered,10000.0,2.3723,-67.5659
1246,Kurtöp,kurtöp,Bhutan,BTN,Vulnerable,10000.0,27.7127,90.9667
535,Lamgang,lamkang,India,IND,Critically endangered,10000.0,24.2569,94.0759
2447,Miqie,michal miqie,China,CHN,Definitely endangered,10000.0,26.9053,100.8506
1956,Mojo,mojo,Bolivia (Plurinational State of),BOL,Definitely endangered,10000.0,-14.966,-65.1708
1198,Muot,nicobarés central,India,IND,Critically endangered,10000.0,8.0932,93.4963
1589,Naiki,naiquí,India,IND,Critically endangered,10000.0,19.8287,78.2281
1948,Ñandeva Guarani,guaraní ñandeva,Brazil,BRA,Vulnerable,10000.0,-22.0652,-54.7558
27,Ngwaba,enguaba,Nigeria,NGA,Severely endangered,10000.0,9.9904,12.81
394,North Frisian,frisón septentrional,Germany,DEU,Severely endangered,10000.0,54.7341,8.7478
483,Northern Khanty,jantí septentrional,Russian Federation,RUS,Definitely endangered,10000.0,63.7047,66.676
1008,Nyah Kur,ñahkur,Thailand,THA,Definitely endangered,10000.0,15.6587,101.5068
1248,Nyenkha,nyenkha,Bhutan,BTN,Vulnerable,10000.0,27.4595,90.4119
2283,Orang Hulu,yakuno,Malaysia,MYS,Definitely endangered,10000.0,1.8871,103.984
1718,Otoro,otoro,Sudan,SDN,Severely endangered,10000.0,11.1864,30.6353
461,Solon,solon,China,CHN,Definitely endangered,10000.0,48.166,119.4873
2440,Southern Tujia,tujia meridional,China,CHN,Severely endangered,10000.0,28.258,109.9398
2331,Taba,taba,Indonesia,IDN,Vulnerable,10000.0,0.0659,127.4084
2410,Talu,talu,China,CHN,Vulnerable,10000.0,26.5623,102.8506
718,Tamazight (Tunisia),tamazight (Túnez),Tunisia,TUN,Severely endangered,10000.0,36.0313,9.8767
2027,Tayal,atayal,China,CHN,Vulnerable,10000.0,24.5458,121.3591
1723,Temein,temeino,Sudan,SDN,Severely endangered,10000.0,11.8377,29.4625
2296,Temiar,temiar,Malaysia,MYS,Definitely endangered,10000.0,4.9493,101.4113
1079,Trukhmen,trukhmenio,"Russian Federation, Turkmenistan","RUS, TKM",Definitely endangered,10000.0,44.4886,44.5385
120,Vidunda,vidunda,United Republic of Tanzania,TZA,Vulnerable,10000.0,-6.8664,37.304
291,Kogui,cogui,Colombia,COL,Vulnerable,9911.0,10.8548,-74.0258
1297,Paloor,palor,Senegal,SEN,Vulnerable,9680.0,14.7801,-16.8035
1780,Awakatek (Guatemala),aguacateco (Guatemala),Guatemala,GTM,Vulnerable,9613.0,15.3429,-91.312
1541,Choctaw (Louisiana),chocta (Luisiana),United States of America,USA,Vulnerable,9500.0,31.6822,-92.1252
896,Choctaw (Mississipi),chocta (Mississipi),United States of America,USA,Vulnerable,9500.0,32.7713,-89.1163
1542,Choctaw (Oklahoma),chocta (Oklahoma),United States of America,USA,Vulnerable,9500.0,34.1472,-94.81
1850,Gawar-Bati,gavar-batí,"Pakistan, Afghanistan","PAK, AFG",Definitely endangered,9500.0,35.158,71.4083
2259,Taruang,digarú,"China, India, Myanmar","CHN, IND, MMR",Vulnerable,9332.0,28.12,95.88
1088,Khaling,jalingo,Nepal,NPL,Definitely endangered,9288.0,27.5781,86.7163
1485,Western Tarahumara,tarahumara occidental,Mexico,MEX,Vulnerable,9196.0,27.3361,-108.5007
2362,Nunavimmiutitut,nunavimmiutitut,Canada,CAN,Vulnerable,9105.0,58.1665,-68.3605
275,Woods Cree,clisteno del bosque,Canada,CAN,Vulnerable,9095.0,55.1711,-102.9061
2244,Phula (Viet Nam),pula (Vietnam),Viet Nam,VNM,Definitely endangered,9046.0,22.7833,105.4666
1085,Dol-po,dolpo,Nepal,NPL,Definitely endangered,9000.0,29.2193,83.0676
2581,Helong,helong,Indonesia,IDN,Severely endangered,9000.0,-10.1905,123.5247
2337,Lisela,lisela,Indonesia,IDN,Vulnerable,9000.0,-3.2392,127.0239
1219,Motuo Menba,monpa de Motuo,"China, India","CHN, IND",Definitely endangered,9000.0,28.664,94.0347
1889,Panamahka,panamaka,Nicaragua,NIC,Vulnerable,9000.0,14.2856,-84.5947
880,Zuni,zuñí,United States of America,USA,Vulnerable,9000.0,35.082,-108.76
1750,Mopán (Belize),mopán (Belize),Belize,BLZ,Severely endangered,8980.0,16.2449,-88.8654
1728,Tulishi,tulishi,Sudan,SDN,Severely endangered,8628.0,11.5984,29.0917
1016,Central Cuicatec,cuicateco central,Mexico,MEX,Vulnerable,8621.0,17.8,-96.961
1685,Ts'amay,tsamai,Ethiopia,ETH,Definitely endangered,8621.0,5.4382,37.2463
1604,Phalura,phalura,Pakistan,PAK,Definitely endangered,8600.0,35.7264,71.7434
1268,Northern Popoloc,popoloca septentrional,Mexico,MEX,Vulnerable,8597.0,18.6818,-97.658
1274,Ixcatlán Mazatec,mazateco de Ixcatlán,Mexico,MEX,Vulnerable,8593.0,18.1447,-96.4855
918,Patla-Chicontla Totonac,totonacano de Patla,Mexico,MEX,Severely endangered,8590.0,20.1644,-97.6927
1647,Toram,toram,Chad,TCD,Severely endangered,8456.0,11.1581,19.6023
994,Northwestern Tlapanec,tlapaneco noroccidental,Mexico,MEX,Vulnerable,8409.0,17.5595,-98.9332
271,Dene,dené,Canada,CAN,Vulnerable,8195.0,56.4807,-109.4127
1526,Micmac (Massachusetts),micmac (Massachussets),United States of America,USA,Definitely endangered,8145.0,42.3589,-71.0578
88,Argobba,argobba,Ethiopia,ETH,Critically endangered,8000.0,10.5958,39.9792
708,Austral dialects,dialectos de las islas Australes,French Polynesia (France),PYF,Definitely endangered,8000.0,-23.3775,-149.4909
1693,Belanda Bor,belanda bor,Sudan,SDN,Definitely endangered,8000.0,6.4954,27.7404
1701,Feroge,feroge,Sudan,SDN,Vulnerable,8000.0,8.5049,25.7189
1980,Hachijō,hachijō,Japan,JPN,Definitely endangered,8000.0,33.11,139.7891
1853,Inga,inga,Colombia,COL,Severely endangered,8000.0,1.1658,-77.0011
67,Kanga,canga,Sudan,SDN,Severely endangered,8000.0,10.844,29.4708
2424,Lajia,lakia,China,CHN,Definitely endangered,8000.0,23.7439,110.0526
1255,Lakha,lakha,Bhutan,BTN,Definitely endangered,8000.0,27.5898,90.3735
2187,Mbya Guarani (Paraguay),guaraní mbyá (Paraguay),Paraguay,PRY,Definitely endangered,8000.0,-26.5099,-55.2832
1675,Mundurukú,mundurucú,Brazil,BRA,Vulnerable,8000.0,-8.1027,-57.3486
767,Ojibwe,oyibua,United States of America,USA,Severely endangered,8000.0,46.0706,-93.6677
586,Quichua (Salasaca),quichua (Salasaca),Ecuador,ECU,Definitely endangered,8000.0,-1.3511,-78.6511
1182,Rongpo,rangpo,India,IND,Vulnerable,8000.0,30.7229,79.7387
557,Sanyi,sanie,China,CHN,Severely endangered,8000.0,24.9262,102.5134
2284,Temuan,temuano,Malaysia,MYS,Severely endangered,8000.0,3.3709,101.984
1726,Tingal,tingal,Sudan,SDN,Definitely endangered,8000.0,12.238,31.1215
735,Wampis,huambisa,Peru,PER,Vulnerable,8000.0,-3.4476,-77.7941
2402,Wunai Bunu,bunú wunai,China,CHN,Definitely endangered,8000.0,24.4146,107.8378
739,Yanesha,amuesa,Peru,PER,Severely endangered,8000.0,-10.3743,-75.2343
1369,Mam (Mexico),mam (México),Mexico,MEX,Severely endangered,7977.0,17.3661,-93.5334
1318,Pana,pana,Burkina Faso,BFA,Definitely endangered,7800.0,13.165,-3.4277
1983,Macushi (Guyana),macusí (Guyana),Guyana,GUY,Vulnerable,7750.0,3.6888,-59.4799
466,Chukchi,chukoto,Russian Federation,RUS,Severely endangered,7742.0,67.6248,176.1767
1875,Cabécar,cabécar,Costa Rica,CRI,Vulnerable,7622.0,9.9012,-83.6844
593,Awa Cuaiquer,cuaiquer,Colombia,COL,Critically endangered,7500.0,1.4939,-78.5742
2172,Lishana Deni (Israel),lishana deni  (Israel),Israel,ISR,Severely endangered,7500.0,31.7748,35.1013
925,Central Pame,pame central,Mexico,MEX,Vulnerable,7399.0,21.9208,-99.3741
309,Puinave,puinave,"Colombia, Venezuela (Bolivarian Republic of)","COL, VEN",Definitely endangered,7377.0,4.434,-68.1591
1702,Mebengokre,cayapó,Brazil,BRA,Vulnerable,7266.0,-6.5569,-52.4707
316,Tunebo,tunebo,"Colombia, Venezuela (Bolivarian Republic of)","COL, VEN",Definitely endangered,7231.0,6.4463,-72.0483
1015,Quechua of Peruvian Amazonia,quechua amazónico peruano,Peru,PER,Vulnerable,7200.0,-2.3723,-74.1137
1217,Asur,asuri,India,IND,Definitely endangered,7000.0,22.4719,84.9023
2301,Bashkardi,baskardí,Iran (Islamic Republic of),IRN,Definitely endangered,7000.0,28.5169,57.7551
91,Burji,buryí,Kenya,KEN,Vulnerable,7000.0,2.1857,37.9248
2431,Choyi,queyu,China,CHN,Definitely endangered,7000.0,30.8519,99.6659
2061,Gazi,gazi,Iran (Islamic Republic of),IRN,Definitely endangered,7000.0,32.8036,51.6211
2433,Guichong,guichión,China,CHN,Vulnerable,7000.0,30.8148,101.7021
1332,Karagash,tofa,Russian Federation,RUS,Definitely endangered,7000.0,47.2643,47.2412
1786,Natanzi,natanzí,Iran (Islamic Republic of),IRN,Severely endangered,7000.0,33.452,51.3006
1783,Nayini,nayiní,Iran (Islamic Republic of),IRN,Severely endangered,7000.0,32.8519,53.1573
1439,Parya,parya,"Uzbekistan, Tajikistan, Afghanistan","UZB, TJK, AFG",Severely endangered,7000.0,38.5094,68.0932
103,Segeju,daiso,United Republic of Tanzania,TZA,Severely endangered,7000.0,-4.8173,39.0783
1795,Sivandi,sivandi,Iran (Islamic Republic of),IRN,Definitely endangered,7000.0,29.9168,51.5945
2302,Soi,soi,Iran (Islamic Republic of),IRN,Definitely endangered,7000.0,31.6533,55.6787
1852,Tucano (Brazil),tucano (Brasil),Brazil,BRA,Vulnerable,7000.0,0.1757,-67.2363
320,Wapishana (Guyana),wapishana (Guyana),Guyana,GUY,Vulnerable,7000.0,2.3065,-59.6997
1739,Yulu,yulu,"Central African Republic, Democratic Republic of the Congo, Sudan","CAF, ZAI, SDN",Vulnerable,7000.0,8.3854,24.1754
2438,Zhaba,chaba,China,CHN,Vulnerable,7000.0,31.4,100.4734
1828,Sakapultek,sacapulteco,Guatemala,GTM,Definitely endangered,6973.0,14.9752,-91.0527
1677,Chara,chara,Ethiopia,ETH,Vulnerable,6932.0,6.479,36.3647
2339,Kosraean,kosreano,"Micronesia (Federated States of), Nauru","FSM, NRU",Severely endangered,6900.0,5.322,162.9904
1902,Waunana (Panama),waumeo (Panamá),Panama,PAN,Severely endangered,6882.0,8.2984,-78.1018
694,San Francisco del Mar Huave,huave de San Francisco del Mar,Mexico,MEX,Critically endangered,6874.0,16.3333,-94.5166
692,Northern East Cree,clisteno nororiental,Canada,CAN,Vulnerable,6870.0,53.6916,-78.8011
1317,Micmac (Canada),micmac (Canadá),Canada,CAN,Vulnerable,6850.0,45.9646,-60.6172
2720,Northern Tepehuán,tepehuano septentrional,Mexico,MEX,Definitely endangered,6802.0,26.4258,-107.2683
1087,Miju,miju,"China, India","CHN, IND",Vulnerable,6700.0,28.1155,96.2896
879,Rio Grande Keresan,queresano de Río Grande,United States of America,USA,Definitely endangered,6685.0,35.5147,-106.3655
1281,Western Mazatec,mazateco del oeste,Mexico,MEX,Vulnerable,6639.0,18.1351,-96.9057
1676,Bussa,busa,Ethiopia,ETH,Vulnerable,6624.0,5.7225,37.1406
1694,Beli,beli,Sudan,SDN,Definitely endangered,6600.0,6.4736,29.2675
2444,Chesu,chesu,China,CHN,Definitely endangered,6600.0,24.4211,102.0459
57,Thuri,thuri,Sudan,SDN,Vulnerable,6600.0,8.4397,25.4333
1053,Karata,karata,Russian Federation,RUS,Definitely endangered,6574.0,42.5874,46.3348
2375,Saulteau,saulteaux,Canada,CAN,Vulnerable,6558.0,50.5573,-98.6562
1166,Kumāle,kumhali,Nepal,NPL,Severely endangered,6533.0,27.788,84.548
929,Lower Northwestern Otomí,otomí noroccidental bajo,Mexico,MEX,Vulnerable,6509.0,20.1865,-100.1469
83,Dimme,dimé,Ethiopia,ETH,Vulnerable,6501.0,5.9548,36.2988
585,Chiquitano (Bolivia),Chiquitano (Bolivia),Bolivia (Plurinational State of),BOL,Definitely endangered,6500.0,-16.5835,-61.6113
1729,Tumtum,tumtum,Sudan,SDN,Severely endangered,6500.0,10.477,30.4321
1042,Bezhta,bejila,Russian Federation,RUS,Definitely endangered,6461.0,42.1369,46.1508
1115,Thakali,thakali,Nepal,NPL,Vulnerable,6441.0,28.7146,83.6478
74,Dongotono,dongotono,Sudan,SDN,Vulnerable,6219.0,4.965,35.321
1763,Mawé,mawé-sateré,Brazil,BRA,Vulnerable,6219.0,-3.8642,-56.7773
498,Shor,sorio,Russian Federation,RUS,Severely endangered,6210.0,53.0544,87.7478
992,Central Tlapanec,tlapaneco central,Mexico,MEX,Vulnerable,6191.0,17.2624,-98.7482
2366,Oji-Cree,oyi-clisteno,Canada,CAN,Vulnerable,6110.0,53.8141,-94.8977
65,Keiga,keiga,Sudan,SDN,Severely endangered,6072.0,11.3184,29.696
2271,Ampibabo Lauje,lauje,Indonesia,IDN,Vulnerable,6000.0,0.3295,120.1904
1631,Cashinahua (Brazil),cashinahua (Brasil),Brazil,BRA,Vulnerable,6000.0,-9.2603,-71.5304
32,Geji cluster,grupo geji,Nigeria,NGA,Severely endangered,6000.0,10.196,9.5581
1879,Mbya Guarani (Brazil),guaraní mbyá (Brasil),Brazil,BRA,Vulnerable,6000.0,-30.1451,-50.625
1010,Moklen,moklen,"Myanmar, Thailand","MMR, THA",Definitely endangered,6000.0,8.1953,98.3036
2624,Nauruan,nauruano,Nauru,NRU,Severely endangered,6000.0,-0.53,166.9221
1818,Nheengatu / Yeral (Brazil),nheengatú  (Brasil),Brazil,BRA,Severely endangered,6000.0,-0.4833,-67.0166
2299,Parachi,parachí,Afghanistan,AFG,Definitely endangered,6000.0,34.4658,68.637
1014,Quechua of San Martín,quechua de San Martín,Peru,PER,Severely endangered,6000.0,-6.5336,-76.4428
1293,Sawkna,sokna,Libyan Arab Jamahiriya,LBY,Critically endangered,6000.0,27.252,17.7539
1100,Sulung,sulung,"China, India","CHN, IND",Definitely endangered,6000.0,27.839,92.8784
1060,Tindi,tindi,Russian Federation,RUS,Definitely endangered,6000.0,42.466,46.1453
785,Western Apache,apache occidental,United States of America,USA,Definitely endangered,6000.0,33.2563,-110.4637
323,Yanomami (Brazil),yanomamö (Brasil),Brazil,BRA,Vulnerable,6000.0,3.0746,-63.457
1460,Yazgulami,yazgulamí,Tajikistan,TJK,Severely endangered,6000.0,38.1982,71.4276
432,Chantyal,chantel,Nepal,NPL,Definitely endangered,5912.0,28.4493,83.4054
2341,Mortlockese,mortlock,Micronesia (Federated States of),FSM,Definitely endangered,5904.0,5.5811,153.5668
1767,Baníwa do Içana,baniwa,"Brazil, Colombia, Venezuela (Bolivarian Republic of)","BRA, COL, VEN",Vulnerable,5811.0,1.2743,-68.291
285,"Akawaio (Guyana, Venezuela)","akawaio (Guyana, Venezuela)","Guyana, Venezuela (Bolivarian Republic of)","GUY, VEN",Definitely endangered,5800.0,5.3753,-60.5126
1039,Akhvakh,ajvaj,Russian Federation,RUS,Definitely endangered,5793.0,42.472,46.3238
420,Veps,vepsio,Russian Federation,RUS,Severely endangered,5753.0,60.3269,34.8046
2372,Qikiqtaaluk nigiani,qikiqtaaluk nigiani,Canada,CAN,Vulnerable,5740.0,63.7577,-68.5178
1829,Sipakapense,sipacapense,Guatemala,GTM,Definitely endangered,5687.0,15.2121,-91.6335
1871,Bribri (Costa Rica),talamanca (Costa Rica),Costa Rica,CRI,Vulnerable,5647.0,9.5596,-83.3073
1301,Bainouk-Gunyaamolo,bainuko-gunyaamolo,Senegal,SEN,Vulnerable,5635.0,12.7421,-16.1141
1305,Kwatay,kwatay,Senegal,SEN,Severely endangered,5625.0,12.4204,-16.7596
2248,Baheng (Viet Nam),baheng (Vietnam),Viet Nam,VNM,Vulnerable,5569.0,22.8166,106.35
909,Central Zoque,zoqué central,Mexico,MEX,Definitely endangered,5500.0,17.0965,-93.2095
1605,Dameli,damelí,Pakistan,PAK,Severely endangered,5500.0,35.578,71.8684
1138,Sak (Bangladesh),sak (Bangladesh),Bangladesh,BGD,Severely endangered,5500.0,21.5041,92.2055
1603,Yidgha,munyaní,Pakistan,PAK,Definitely endangered,5500.0,36.0024,71.6006
1486,Southeastern Tarahumara,tarahumara suroriental,Mexico,MEX,Vulnerable,5406.0,26.0891,-106.9645
634,Chimané,chimané,Bolivia (Plurinational State of),BOL,Vulnerable,5300.0,-15.2629,-66.8518
73,Dilling,dillingo,Sudan,SDN,Definitely endangered,5295.0,12.0178,29.663
851,San Dionisio del Mar Huave,huave de San Dionisio del Mar,Mexico,MEX,Definitely endangered,5165.0,16.3166,-94.75
72,Lafofa,lafofa,Sudan,SDN,Severely endangered,5140.0,10.3716,30.6243
2220,Akeu,akeu,"Lao People's Democratic Republic, Myanmar, Thailand","LAO, MMR, THA",Definitely endangered,5000.0,21.5833,101.0166
2429,Anung (China),anung (China),China,CHN,Critically endangered,5000.0,26.7368,98.7766
1040,Bagvalal,bagvalal,Russian Federation,RUS,Definitely endangered,5000.0,42.5247,46.192
1671,Bambassi,bambeshi,Ethiopia,ETH,Definitely endangered,5000.0,9.7469,34.7662
288,Barí,motilón,Colombia,COL,Vulnerable,5000.0,9.0261,-73.2678
1435,Bartangi,bartangí,Tajikistan,TJK,Severely endangered,5000.0,38.048,71.8286
983,Bokar,bokar,"China, India","CHN, IND",Vulnerable,5000.0,28.8735,94.3807
444,Brokpa,sagtenpa,Bhutan,BTN,Definitely endangered,5000.0,27.3766,91.9981
900,Creek,muskoguí,United States of America,USA,Definitely endangered,5000.0,35.6319,-95.9616
2002,Cubeo (Colombia),cubeo (Colombia),Colombia,COL,Vulnerable,5000.0,1.5,-70.5
450,Dagur (Hailar),daguro (Hailar),China,CHN,Definitely endangered,5000.0,48.6111,119.7949
2524,Damal,damal,Indonesia,IDN,Vulnerable,5000.0,-4.2806,137.0324
123,Dhaiso,daisa,United Republic of Tanzania,TZA,Definitely endangered,5000.0,-5.0745,38.4741
1206,Gorum,gorumo,India,IND,Definitely endangered,5000.0,18.667,83.0346
1922,Guarayu,guarayo,Bolivia (Plurinational State of),BOL,Definitely endangered,5000.0,-15.919,-62.8747
1597,Gutnish,gotlandiano,Sweden,SWE,Definitely endangered,5000.0,57.3027,18.5284
870,Hopi,hopí,United States of America,USA,Vulnerable,5000.0,35.8721,-110.6205
30,Ilue,ilue,Nigeria,NGA,Critically endangered,5000.0,4.9185,8.2397
1962,Jibbali,yibalí,Oman,OMN,Severely endangered,5000.0,18.0623,52.4267
1602,Kalasha,calasa,Pakistan,PAK,Severely endangered,5000.0,35.6684,71.7201
117,Kami,kami,United Republic of Tanzania,TZA,Severely endangered,5000.0,-6.8937,37.1337
529,Kathu,gasu,China,CHN,Definitely endangered,5000.0,24.136,105.249
2068,Khojki,luvatí,Oman,OMN,Severely endangered,5000.0,23.6193,58.5653
128,Khwe,xun,Namibia,NAM,Definitely endangered,5000.0,-18.271,21.4892
1188,Kom,kom,India,IND,Definitely endangered,5000.0,24.0414,93.6639
2183,Korandje,Korandje,Algeria,DZA,Severely endangered,5000.0,29.4049,-3.2605
531,Lachi,lati,Viet Nam,VNM,Definitely endangered,5000.0,22.5,104.1333
2426,Mak,ching,China,CHN,Definitely endangered,5000.0,25.5532,107.3809
709,Manihiki,manihiki-rakahanga,Cook Islands,COK,Definitely endangered,5000.0,-10.4,-161.0
388,Megleno-Romanian,rumano meglenita,"Greece, The former Yugoslav Republic of Macedonia","GRC, MKD",Severely endangered,5000.0,41.1042,22.2025
1094,Miji,miji,India,IND,Definitely endangered,5000.0,27.3351,92.5735
2413,Mo'ang (China),moang (China),China,CHN,Definitely endangered,5000.0,23.8421,103.9116
2243,Mo'ang (Viet Nam),moang (Vietnam),Viet Nam,VNM,Definitely endangered,5000.0,22.7833,105.3666
1349,Molise Croatian,croata molise,Italy,ITA,Severely endangered,5000.0,41.8787,14.7065
2454,Moroccan Judeo-Arabic (Morocco),judeo-árabe marroquí (Marruecos),Morocco,MAR,Severely endangered,5000.0,34.0435,-5.0097
2436,Namuyi,namuyi,China,CHN,Vulnerable,5000.0,28.0727,101.9565
2313,Padoe,padoe,Indonesia,IDN,Vulnerable,5000.0,-2.6467,121.2615
307,Patamona (Guyana),patamona (Guyana),Guyana,GUY,Vulnerable,5000.0,4.5873,-59.8095
1193,Pu,pur,India,IND,Critically endangered,5000.0,8.2549,93.1022
310,Pume,yaruro,Venezuela (Bolivarian Republic of),VEN,Definitely endangered,5000.0,6.7518,-68.247
1103,Singpho,yingpho,India,IND,Definitely endangered,5000.0,27.5569,96.7456
1216,Turi,turi,India,IND,Definitely endangered,5000.0,21.8411,87.2973
1063,Udi (Azerbaijan),udi (Azerbaiyán),Azerbaijan,AZE,Severely endangered,5000.0,41.0689,47.4609
1979,Yecuana (Venezuela),ye'cuana (Venezuela),Venezuela (Bolivarian Republic of),VEN,Vulnerable,5000.0,4.8501,-64.5117
1125,Jirel,jirel,Nepal,NPL,Definitely endangered,4919.0,27.6419,86.2123
468,Dolgan,dolgán,Russian Federation,RUS,Definitely endangered,4865.0,71.3851,97.3388
2057,Romani (Colombia),Romaní (Colombia),Colombia,COL,Vulnerable,4858.0,,
1160,Tsum,tsum,Nepal,NPL,Definitely endangered,4786.0,28.4723,85.008
993,Northern Tlapanec,tlapaneco septentrional,Mexico,MEX,Vulnerable,4771.0,17.4203,-98.7814
2028,Taroko,taroko,China,CHN,Vulnerable,4750.0,24.0916,121.5218
151,Kivallirmiutut,kivallirmiutut,Canada,CAN,Vulnerable,4675.0,61.0982,-94.1201
1283,Puebla Mazatec,mazateco de Puebla,Mexico,MEX,Vulnerable,4660.0,18.476,-96.8351
954,Zapotec of Petapa,zapoteco de Petapa,Mexico,MEX,Definitely endangered,4613.0,16.8333,-95.1166
1086,Dungmali,dungmali,Nepal,NPL,Definitely endangered,4609.0,27.1874,87.1902
1427,Saryg Yugur,yugur sarig,China,CHN,Severely endangered,4600.0,39.2747,98.8439
2373,Qikiqtaaluk uannangani,qikiqtaaluk uannangani,Canada,CAN,Vulnerable,4550.0,69.3878,-81.615
1689,Afitti,afitti,Sudan,SDN,Severely endangered,4512.0,12.4419,30.7534
748,Nomatsiguenga,nomatsiguenga,Peru,PER,Severely endangered,4500.0,-11.3292,-74.3664
308,Piapoko,piapoko,"Colombia, Venezuela (Bolivarian Republic of)","COL, VEN",Definitely endangered,4500.0,4.0396,-68.0712
713,Tokelauan,tokelauano,Tokelau,TKL,Severely endangered,4500.0,-9.1699,-171.8206
2326,Wotu,wotu,Indonesia,IDN,Vulnerable,4500.0,-2.6303,120.888
1111,Wambule,wambule,Nepal,NPL,Vulnerable,4471.0,27.1746,86.4363
688,Southern East Cree,clisteno suroriental,Canada,CAN,Vulnerable,4455.0,50.587,-73.6365
1673,Arbore,arbore,Ethiopia,ETH,Definitely endangered,4441.0,5.069,36.892
58,Ebang,heibano,Sudan,SDN,Severely endangered,4412.0,11.313,30.5886
1327,Tafi,tafi,Ghana,GHA,Vulnerable,4400.0,6.73,0.4421
1101,Puma,puma,Nepal,NPL,Severely endangered,4310.0,26.9692,86.9004
1742,Gyele,guiele,"Cameroon, Equatorial Guinea","CMR, GNQ",Definitely endangered,4280.0,2.2241,9.8986
1744,Bwisi,talinga-bwisi,"Congo, Gabon","COG, GAB",Definitely endangered,4248.0,-3.5572,11.4477
267,Eastern Montagnais,montañés oriental,Canada,CAN,Vulnerable,4180.0,50.2136,-66.193
1545,Atikamekw,atikamek,Canada,CAN,Vulnerable,4155.0,47.2104,-74.3827
906,Western Zoque,zoqué occidental,Mexico,MEX,Vulnerable,4100.0,16.9063,-91.7333
878,Acoma-Laguna,queresano occidental,United States of America,USA,Definitely endangered,4000.0,34.8964,-107.5816
1097,Aka,aka,"India, Sudan","IND, SDN",Definitely endangered,4000.0,27.1666,92.6312
1313,Baga Manduri,baga maduri,Guinea,GIN,Definitely endangered,4000.0,10.0986,-14.0405
13,Baga Sitemu,baga sitemu,Guinea,GIN,Severely endangered,4000.0,10.1094,-14.1586
1044,Botlikh,botlij,Russian Federation,RUS,Definitely endangered,4000.0,42.6602,46.2222
1181,Bunan,bunán,India,IND,Definitely endangered,4000.0,32.7503,76.2451
749,Cashinahua (Peru),cashinahua (Perú),Peru,PER,Definitely endangered,4000.0,-10.3581,-71.5869
581,Cha'palaa,cayapa,Ecuador,ECU,Definitely endangered,4000.0,0.9386,-79.0055
459,Evenki (Manchuria),evenki (Manchuria),China,CHN,Severely endangered,4000.0,50.34,123.43
523,Gazhuo,kaduo,China,CHN,Definitely endangered,4000.0,24.0959,102.5463
1047,Godoberi,godoberí,Russian Federation,RUS,Definitely endangered,4000.0,42.643,46.1027
670,"Kari'ña (Guyana, Suriname)","galibi (Guyana, Surinam)","Guyana, Suriname","GUY, SUR",Severely endangered,4000.0,6.8828,-60.2929
2174,Lishan Didan (Israel),lishanán (Israel),Israel,ISR,Severely endangered,4000.0,32.0383,34.7827
2233,Maleng,pakatan,Lao People's Democratic Republic,LAO,Definitely endangered,4000.0,18.0166,105.0
2312,Napu,napu,Indonesia,IDN,Vulnerable,4000.0,-1.2882,120.2536
2316,Rahambuu,rahambuu,Indonesia,IDN,Vulnerable,4000.0,-3.1898,121.0858
1127,Shingsaba,lhomi,"China, Nepal","CHN, NPL",Vulnerable,4000.0,27.7163,87.4731
1431,Sinkiang Dagur,daguro de Xinjiang,China,CHN,Definitely endangered,4000.0,46.7737,83.0017
1441,Taa,engamaní,Botswana,BWA,Definitely endangered,4000.0,-24.1367,20.1049
54,Tennet,tenet,Sudan,SDN,Vulnerable,4000.0,4.8611,33.2226
1920,Wapishana (Brazil),wapishana (Brasil),Brazil,BRA,Definitely endangered,4000.0,2.8113,-61.2377
1908,Yagua,yagua,Peru,PER,Definitely endangered,4000.0,-3.3598,-72.3779
1932,Yanomám,yanomámi,Brazil,BRA,Vulnerable,4000.0,3.3818,-63.8085
1981,Yanomami (Venezuela),yanomamö (Venezuela),Venezuela (Bolivarian Republic of),VEN,Vulnerable,4000.0,2.5918,-64.7314
2404,Younuo Bunu,bunú yunuo,China,CHN,Definitely endangered,4000.0,25.1463,106.5405
717,Zenaga (Mauritania),zenaga  (Mauritania),Mauritania,MRT,Severely endangered,4000.0,17.3086,-13.0078
1551,Baghati,baghati,India,IND,Critically endangered,3976.0,31.194,77.0471
1552,Bharmauri,gaddi,India,IND,Definitely endangered,3976.0,32.4912,76.8383
1832,Uspantek,uspanteco,Guatemala,GTM,Vulnerable,3971.0,15.3475,-90.8684
2196,Khang Quang Lam,jang,Viet Nam,VNM,Severely endangered,3921.0,22.0333,102.6666
1323,Konni,konni,Ghana,GHA,Vulnerable,3800.0,10.3311,-1.6973
1727,Tocho,tocho,Sudan,SDN,Severely endangered,3800.0,10.8764,30.1135
976,Mixtec of the Puebla-Oaxaca border,Mixteco de la frontera Puebla-Oaxaca,Mexico,MEX,Definitely endangered,3791.0,18.1333,-97.6833
1158,Nupri,nubrí,Nepal,NPL,Definitely endangered,3776.0,28.6384,84.6079
1926,Ayoreo,ayoreo,Bolivia (Plurinational State of),BOL,Definitely endangered,3700.0,-18.719,-59.6228
543,Moyon,moyon,India,IND,Definitely endangered,3700.0,24.4171,94.378
2415,Utsat,utsat,China,CHN,Definitely endangered,3700.0,18.2727,109.3871
85,Nayi,nayí,Ethiopia,ETH,Vulnerable,3656.0,7.2698,36.1724
2690,Mussau-Emira,emira,Papua New Guinea,PNG,Definitely endangered,3651.0,-1.4774,149.6392
1737,Narim,longarim,Sudan,SDN,Definitely endangered,3623.0,4.9048,34.2224
1834,Garífuna (Guatemala),garífuna (Guatemala),Guatemala,GTM,Vulnerable,3564.0,15.8268,-88.7506
1099,Nachiring,nacherín,Nepal,NPL,Severely endangered,3553.0,27.4144,86.7521
1269,Eastern Popoloc,popoloca oriental,Mexico,MEX,Vulnerable,3544.0,18.3322,-97.3471
1716,Nding,nding,Sudan,SDN,Critically endangered,3513.0,10.4121,30.6024
2218,Anung (Myanmar),anung (Myanmar),Myanmar,MMR,Severely endangered,3500.0,27.2,98.6333
578,Camsá,camsá,Colombia,COL,Definitely endangered,3500.0,0.8788,-76.7724
883,Crow,absáraca,United States of America,USA,Definitely endangered,3500.0,45.5963,-107.4613
554,Sak (Myanmar),sak (Myanmar),Myanmar,MMR,Vulnerable,3500.0,21.2333,93.0761
1720,Shwai,chirumba,Sudan,SDN,Critically endangered,3500.0,11.3184,30.4156
2576,Wano,wano,Indonesia,IDN,Definitely endangered,3500.0,-3.5463,137.9058
2365,Northwestern Ojibwe,oyibua noroccidental,Canada,CAN,Vulnerable,3465.0,52.0016,-95.4274
1393,Bakpinka,bakpinka,Nigeria,NGA,Critically endangered,3416.0,5.3644,8.2397
1736,Morokodo,morocodo,Sudan,SDN,Severely endangered,3400.0,6.0313,29.7949
1271,Eloxochitlán Mazatec,mazateco de Eloxochitlán,Mexico,MEX,Vulnerable,3384.0,18.1754,-96.8765
1311,Menik,budik,Senegal,SEN,Definitely endangered,3375.0,12.7528,-12.2717
1899,Teribe (Panama),naso (Panamá),Panama,PAN,Definitely endangered,3305.0,9.4472,-82.5166
1725,Tima,tima,Sudan,SDN,Severely endangered,3305.0,11.7033,29.1934
1679,Mursi,mursi,Ethiopia,ETH,Vulnerable,3278.0,5.5831,36.5075
2315,Pendau,pendau,Indonesia,IDN,Vulnerable,3200.0,0.1922,120.0091
1285,Ayautla Mazatec,mazateco de Ayautla,Mexico,MEX,Vulnerable,3192.0,18.019,-96.7441
1752,Yucatec,yucateco,Belize,BLZ,Definitely endangered,3155.0,17.0922,-89.1221
908,Sayultec,sayulteco,Mexico,MEX,Definitely endangered,3150.0,17.8816,-94.9597
991,Eastern Tlapanec,tlapaneco oriental,Mexico,MEX,Vulnerable,3088.0,17.8135,-98.604
1052,Juhur (Caucasus),judeo-tatí (Cáucaso),"Azerbaijan, Russian Federation","AZE, RUS",Definitely endangered,3016.0,42.0044,48.2409
5,Awjila,auyila,Libyan Arab Jamahiriya,LBY,Severely endangered,3000.0,26.6278,24.5214
2274,Baleasang,balaesano,Indonesia,IDN,Definitely endangered,3000.0,-0.0494,119.685
1743,Benga,benga,"Gabon, Equatorial Guinea","GAB, GNQ",Definitely endangered,3000.0,0.9997,9.8657
2276,Besoa,bada,Indonesia,IDN,Vulnerable,3000.0,-1.7163,120.4211
99,Boni,boni,Kenya,KEN,Definitely endangered,3000.0,-0.8294,40.8142
1664,Bonjo,bonjo,Congo,COG,Severely endangered,3000.0,1.7712,17.9598
2484,Brokshat,broskatí,India,IND,Definitely endangered,3000.0,34.6478,76.4978
1045,Budukh,buduj,Azerbaijan,AZE,Severely endangered,3000.0,41.1207,48.3233
76,Dahaalik,dahaalik,Eritrea,ERI,Critically endangered,3000.0,15.6917,40.0671
686,East Greenlandic,groenlandés oriental,Greenland (Kingdom of Denmark),GRL,Definitely endangered,3000.0,65.6061,-37.6858
676,Eastern Khanty,jantí oriental,Russian Federation,RUS,Definitely endangered,3000.0,61.2491,74.5092
25,Fyem,fyam,Nigeria,NGA,Severely endangered,3000.0,9.6332,8.8632
1209,Geta?,geta,India,IND,Severely endangered,3000.0,18.2293,82.727
1382,Gura,gura,Nigeria,NGA,Severely endangered,3000.0,10.075,6.8499
1950,Harsusi,harsusi,Oman,OMN,Definitely endangered,3000.0,19.9372,56.2637
77,Hozo,hozo-seco,Ethiopia,ETH,Definitely endangered,3000.0,9.3352,34.53
874,Jemez,towa,United States of America,USA,Vulnerable,3000.0,35.6151,-106.7242
1322,Kamara,kamara,Ghana,GHA,Definitely endangered,3000.0,9.0858,-2.2576
2338,Kapingamarangi,kapingamarangi,Micronesia (Federated States of),FSM,Severely endangered,3000.0,1.0828,154.8081
2680,Koitabu,coita,Papua New Guinea,PNG,Vulnerable,3000.0,-9.346,147.1179
1408,Kuk,kuk,Cameroon,CMR,Definitely endangered,3000.0,6.4326,10.2365
533,Lai,palyu,China,CHN,Definitely endangered,3000.0,24.4871,105.216
1153,Limirong Tibetan,limirong,Nepal,NPL,Definitely endangered,3000.0,29.9164,81.7617
2175,Lishanid Noshan (Israel),lisánido nosán (Israel),Israel,ISR,Severely endangered,3000.0,31.7188,34.7772
385,Lude,ludio,Russian Federation,RUS,Severely endangered,3000.0,61.5867,33.6813
1907,"Mbya Guarani (Argentina, Uruguay)","guaraní mbyá (Argentina, Uruguay)","Argentina, Uruguay","ARG, URY",Severely endangered,3000.0,-29.6116,-57.4804
1242,"Mohawk (Akwesasne, St. Regis)","mohaqués (Akwesasne, St Regis)",United States of America,USA,Definitely endangered,3000.0,45.0033,-74.6497
489,Nanay,nanái,"China, Russian Federation","CHN, RUS",Severely endangered,3000.0,49.3537,136.5243
2620,Palu'e,palu'e,Indonesia,IDN,Definitely endangered,3000.0,-8.3242,121.7106
1967,Panare,panare,Venezuela (Bolivarian Republic of),VEN,Vulnerable,3000.0,6.5445,-66.4233
646,Pilagá,pilagá,Argentina,ARG,Vulnerable,3000.0,-25.4035,-58.6669
2083,Pitjantjatjara,pichanchachara,Australia,AUS,Vulnerable,3000.0,-26.0719,129.9517
1312,Pukur,baga de Binari,Guinea,GIN,Definitely endangered,3000.0,10.4013,-14.4799
2626,Rotuman,rotumano,Fiji,FJI,Vulnerable,3000.0,-12.5063,177.0776
1837,Savi,saví,"Pakistan, Afghanistan","PAK, AFG",Definitely endangered,3000.0,35.2085,71.845
1096,Sherdukpen,sherdukpen,India,IND,Vulnerable,3000.0,27.1935,92.351
1428,Shira Yugur,yugur sira,China,CHN,Severely endangered,3000.0,39.1002,99.2065
1201,Takahanyilang,takahanyilang,India,IND,Critically endangered,3000.0,6.85,93.8726
2209,U,u,China,CHN,Definitely endangered,3000.0,23.4844,99.8404
2349,Ulithian,ulitiano,Micronesia (Federated States of),FSM,Severely endangered,3000.0,10.0229,139.6801
2587,Waima'a,vaimaa,Timor-Leste,TLS,Definitely endangered,3000.0,-8.4995,126.3372
242,Warlpiri,valpiri,Australia,AUS,Vulnerable,3000.0,-20.8177,131.6601
326,Yukpa,yukpa,Venezuela (Bolivarian Republic of),VEN,Vulnerable,3000.0,9.7956,-72.9382
2394,Western Montagnais,montañés occidental,Canada,CAN,Vulnerable,2980.0,48.9635,-68.5729
1699,Waiwai (Brazil),waiwai (Brasil),Brazil,BRA,Vulnerable,2916.0,-0.7909,-58.2714
1340,Jersey French,francés de Jersey,United Kingdom of Great Britain and Northern Ireland,GBR,Severely endangered,2874.0,49.2211,-2.1368
963,Bahing,bahing,Nepal,NPL,Definitely endangered,2765.0,27.3126,86.5571
2384,Stoney,estoni,Canada,CAN,Vulnerable,2765.0,51.161,-114.8533
1483,Southwestern Tepehuan,tepehuano suroccidental,Mexico,MEX,Vulnerable,2756.0,22.8349,-105.7276
487,Northern Mansi,mansí septentrional,Russian Federation,RUS,Severely endangered,2746.0,62.6539,63.1494
517,Bisu,bisú,"Myanmar, Thailand","MMR, THA",Definitely endangered,2740.0,19.715,99.6789
663,Wari,tubarão/ huarí,Brazil,BRA,Definitely endangered,2721.0,-11.7275,-65.0061
2407,Pakan,bugán,China,CHN,Definitely endangered,2700.0,23.7447,105.2235
2026,Yami,yami,China,CHN,Vulnerable,2700.0,22.0512,121.5403
69,Ko,ko,Sudan,SDN,Critically endangered,2683.0,10.6714,30.8386
667,Yuracaré,yuracaré,Bolivia (Plurinational State of),BOL,Definitely endangered,2675.0,-16.6888,-65.4345
511,Aimol,aimol,India,IND,Critically endangered,2643.0,24.4971,93.6145
1089,Kohi,koi,Nepal,NPL,Vulnerable,2641.0,27.3607,86.8661
957,Chatino of the western lowlands,chatino de la zona baja occidental,Mexico,MEX,Definitely endangered,2640.0,16.3049,-97.5466
127,Bolo,bolo,Angola,ANG,Definitely endangered,2627.0,-10.5526,14.9633
1714,Logol,logol,Sudan,SDN,Severely endangered,2600.0,10.8521,30.6463
559,Sila,sila,"Lao People's Democratic Republic, Viet Nam","LAO, VNM",Definitely endangered,2600.0,22.3094,102.041
922,Pisaflores Tepehua,tepehuano de Pisa Flores,Mexico,MEX,Vulnerable,2578.0,20.6883,-98.0125
1870,Xerente,xerénte,Brazil,BRA,Severely endangered,2569.0,-9.3356,-48.2227
1903,Bribri (Panama),talamanca (Panamá),Panama,PAN,Severely endangered,2521.0,9.4813,-82.6174
566,Achuar,achuar chicham,"Ecuador, Peru","ECU, PER",Definitely endangered,2500.0,-2.8991,-77.4316
1691,Bai,bai,Sudan,SDN,Definitely endangered,2500.0,8.0592,25.5102
1477,Banka,banka,Mali,MLI,Definitely endangered,2500.0,11.4261,-5.6744
744,Culina (Peru),culina (Perú),Peru,PER,Definitely endangered,2500.0,-9.6224,-70.7958
1636,Gadang,gadango,Chad,TCD,Definitely endangered,2500.0,10.3473,17.2485
1054,Khinalug,jinalug,Azerbaijan,AZE,Severely endangered,2500.0,41.1579,48.0706
538,Laomian (China),laomian (China),China,CHN,Definitely endangered,2500.0,23.7645,100.0195
2223,Laomian (Myanmar),laomian (Myanmar),Myanmar,MMR,Definitely endangered,2500.0,22.6833,99.25
1256,Lhokpu,lokpu,Bhutan,BTN,Definitely endangered,2500.0,26.9514,89.2968
2070,Martuwangka,martu wangka,Australia,AUS,Vulnerable,2500.0,-24.1975,122.9589
745,Mayoruna (Peru),matsés (Perú),Peru,PER,Vulnerable,2500.0,-5.5285,-73.4765
2345,Pingelapese,pingilapés,Micronesia (Federated States of),FSM,Severely endangered,2500.0,6.2279,160.7107
711,Rapanui,rapanui,Chile,CHL,Severely endangered,2500.0,-27.108,-109.3579
1207,Remo,remo,India,IND,Severely endangered,2500.0,19.1659,82.6391
1436,Roshorvi,oroshori,Tajikistan,TJK,Severely endangered,2500.0,38.1086,72.1719
1440,Sanglechi,sanglechí,"Tajikistan, Afghanistan","TJK, AFG",Severely endangered,2500.0,36.6585,71.4784
2293,Semelai,semelái,Malaysia,MYS,Severely endangered,2500.0,3.1761,102.4818
2287,Urak Lawoi (Malaysia),urak lawoi (Malasia),Malaysia,MYS,Definitely endangered,2500.0,6.4194,99.7869
1009,Urak Lawoi (Thailand),urak lawoi (Tailandia),Thailand,THA,Definitely endangered,2500.0,7.7756,98.3306
1641,Zirenkel,zirenkel,Chad,TCD,Definitely endangered,2500.0,12.136,18.4735
50,Vumbu,vumbu,Gabon,GAB,Definitely endangered,2460.0,-1.8783,10.816
1823,Mopán (Guatemala),mopán (Guatemala),Guatemala,GTM,Severely endangered,2455.0,16.5144,-89.4167
299,Cuiba,cuiba,"Colombia, Venezuela (Bolivarian Republic of)","COL, VEN",Severely endangered,2445.0,6.4463,-69.9389
1172,Raji,raji,Nepal,NPL,Severely endangered,2413.0,27.9721,82.3135
818,Highland Chontal,chontal de la sierra,Mexico,MEX,Severely endangered,2410.0,16.2832,-95.857
1749,Yasa,yasa,"Cameroon, Equatorial Guinea","CMR, GNQ",Definitely endangered,2401.0,2.3284,9.8464
2657,Bumbita Arapesh,arapeso bumbita,Papua New Guinea,PNG,Vulnerable,2353.0,-3.6449,142.8002
2194,Mang (China),mang (China),China,CHN,Definitely endangered,2300.0,22.8293,103.1039
541,Mang (Viet Nam),mang  (Vietnam),Viet Nam,VNM,Definitely endangered,2300.0,22.35,102.9666
923,Tlachichilco Tepehua,tepehuano de Tlachichilco,Mexico,MEX,Definitely endangered,2234.0,20.6205,-98.1991
1244,Blackfoot (Canada),pies negros (Canadá),Canada,CAN,Definitely endangered,2200.0,49.3535,-113.2884
1640,Jaya,yaya,Chad,TCD,Severely endangered,2200.0,12.187,18.1645
1758,Karipuna do Amapá,karipuna del Amapá,Brazil,BRA,Vulnerable,2200.0,3.3379,-51.6796
1650,Kulfa,kulfa,Chad,TCD,Definitely endangered,2200.0,9.9742,19.1848
2066,Krahô,krahó,Brazil,BRA,Vulnerable,2184.0,-8.4071,-47.2851
2285,Kristang,papia kristang,Malaysia,MYS,Severely endangered,2150.0,2.1935,102.256
732,Yine,piro,Peru,PER,Definitely endangered,2150.0,-11.4584,-73.0261
762,North Alaskan Inupiaq (Kotzebue Sound),inuí alaskiano septentrional (estrecho de Kotzebue),United States of America,USA,Severely endangered,2144.0,66.8972,-162.5855
1372,North Alaskan Inupiaq (North Slope),inuí alaskiano septentrional (zona ártica septentrional),United States of America,USA,Severely endangered,2144.0,71.2725,-156.7749
1373,Seward Peninsula Inupiaq (King Island),inuit de la Península Seward (i. del Rey),United States of America,USA,Critically endangered,2144.0,64.9728,-168.0616
1374,Seward Peninsula Inupiaq (Little Diomede Island),inuit de la Península Seward (i. Diómedes menor),United States of America,USA,Critically endangered,2144.0,65.755,-168.9167
1375,Seward Peninsula Inupiaq (Norton Sound),inuit de la Península Seward (estrecho de Norton),United States of America,USA,Critically endangered,2144.0,64.5433,-163.029
1933,Katukína-Kanamarí,canamarí,Brazil,BRA,Vulnerable,2100.0,-5.6159,-68.7304
233,Tiwi,tiví,Australia,AUS,Vulnerable,2100.0,-11.6091,130.8911
564,Zaozou,zaozou,China,CHN,Vulnerable,2100.0,26.1554,99.2944
1883,Ngäbere (Costa Rica),guaymí (Costa Rica),Costa Rica,CRI,Definitely endangered,2041.0,8.4723,-82.9907
1225,Aiton,aitón,India,IND,Severely endangered,2000.0,26.6523,94.2901
166,Anindilyakwa,anindilyakwa,Australia,AUS,Vulnerable,2000.0,-13.9987,136.582
1936,Apurinã,apurinã,Brazil,BRA,Definitely endangered,2000.0,-5.4847,-63.8964
168,Arrernte,aranda,Australia,AUS,Vulnerable,2000.0,-24.1668,132.0996
281,Ashkun,askún,Afghanistan,AFG,Definitely endangered,2000.0,34.9973,71.0746
2167,Ata,ata,Philippines,PHL,Critically endangered,2000.0,9.6081,122.9155
961,Athpahariya,atpariya,Nepal,NPL,Definitely endangered,2000.0,26.952,87.3399
1905,Ava-Guaraní,avá-guaraní,Argentina,ARG,Definitely endangered,2000.0,-23.1403,-64.3359
81,Bayso,bayso,Ethiopia,ETH,Definitely endangered,2000.0,6.4081,37.749
1214,Birhor,birhor,India,IND,Critically endangered,2000.0,21.7594,85.935
2277,Boano,boano,Indonesia,IDN,Vulnerable,2000.0,0.4724,120.9979
984,Bori,bori,"China, India","CHN, IND",Definitely endangered,2000.0,28.9889,94.4439
525,Chepya,chepya,Lao People's Democratic Republic,LAO,Definitely endangered,2000.0,21.3833,101.8166
1846,Chilisso,chiliss,Pakistan,PAK,Severely endangered,2000.0,35.2136,73.2396
1798,Culina (Brazil),culina (Brasil),Brazil,BRA,Vulnerable,2000.0,-7.1008,-68.7744
1910,Damana,malayo,Colombia,COL,Definitely endangered,2000.0,10.9196,-73.4985
1388,Duguza,duguza,Nigeria,NGA,Definitely endangered,2000.0,9.9039,9.1186
1711,Galibi Marworno,caribe-marworno,Brazil,BRA,Vulnerable,2000.0,3.4256,-52.0312
80,Gats'ama - Ganjule - Harro,gatsama - ganjule - harro,Ethiopia,ETH,Definitely endangered,2000.0,5.9548,37.5292
2333,Gebe,gebe,Indonesia,IDN,Vulnerable,2000.0,-0.1922,129.5397
1290,Ghadames,gadamés,Libyan Arab Jamahiriya,LBY,Vulnerable,2000.0,30.1166,9.5251
1339,Griko (Calabria),griko calabrés,Italy,ITA,Severely endangered,2000.0,37.9961,15.9329
604,Huilliche,huilliche,Chile,CHL,Critically endangered,2000.0,-40.4803,-73.5424
107,Ik,ik,Uganda,UGA,Severely endangered,2000.0,3.5024,34.1894
1183,Jangshung,yansún,India,IND,Definitely endangered,2000.0,31.7748,78.4753
1033,Jero,yerún,Nepal,NPL,Vulnerable,2000.0,27.2241,86.3909
597,Kari'ña (French Guyana),galibi (Guayana Francesa),French Guiana (France),GUF,Definitely endangered,2000.0,5.5066,-53.6572
675,Khamnigan Mongol,mongol jamnigan,"China, Mongolia, Russian Federation","CHN, MNG, RUS",Definitely endangered,2000.0,50.3454,114.1094
1390,Kona,jukun kona,Nigeria,NGA,Severely endangered,2000.0,9.0587,11.2829
2051,Koreguaje,coreguaje,Colombia,COL,Definitely endangered,2000.0,1.0,-75.0
484,Koryak,coriaco,Russian Federation,RUS,Severely endangered,2000.0,61.8561,168.6621
1573,Kota,cota,India,IND,Critically endangered,2000.0,11.4154,76.8576
61,Logorik,logori,Sudan,SDN,Critically endangered,2000.0,11.1433,29.8306
386,Lule Saami,saamí de Lule,"Norway, Sweden","NOR, SWE",Severely endangered,2000.0,67.272,17.7978
1197,Luro,teressa,India,IND,Critically endangered,2000.0,7.915,93.3837
1633,Mambai,mambai,Chad,TCD,Severely endangered,2000.0,9.6007,14.0899
1192,Milang,milang,India,IND,Definitely endangered,2000.0,28.488,95.2954
632,Mocoví,mocoví,Argentina,ARG,Definitely endangered,2000.0,-27.6056,-59.7656
2555,Momuna,momuna,Indonesia,IDN,Vulnerable,2000.0,-5.0,139.0
545,Mpi,mpi,Thailand,THA,Definitely endangered,2000.0,18.2554,100.2227
2412,Muda,muda,China,CHN,Vulnerable,2000.0,21.8421,100.6851
1851,Munji,munyí,Afghanistan,AFG,Severely endangered,2000.0,36.0379,70.6723
2247,Nguon,nguôn,Viet Nam,VNM,Vulnerable,2000.0,17.5333,105.3833
325,Nheengatu / Yeral (Venezuela),nheengatú (Venezuela),Venezuela (Bolivarian Republic of),VEN,Severely endangered,2000.0,1.2303,-66.8408
1362,Nihali,nihali,India,IND,Critically endangered,2000.0,20.5402,76.0913
1123,Nyishangba,nyishangba,Nepal,NPL,Definitely endangered,2000.0,28.6423,84.1017
1532,Ottawa (Walpole Island),oyibua odahua (Isla de Walpole),"Canada, United States of America","CAN, USA",Severely endangered,2000.0,42.6068,-82.5195
1572,Prasun,prasuní,Afghanistan,AFG,Definitely endangered,2000.0,35.3543,71.26
2033,Rukai,rukái,China,CHN,Vulnerable,2000.0,22.792,120.8104
311,Sáliba,sáliva,"Colombia, Venezuela (Bolivarian Republic of)","COL, VEN",Severely endangered,2000.0,5.3097,-69.873
2411,Sangkong,sangkong,China,CHN,Vulnerable,2000.0,21.5158,100.6957
47,Sarwa,sarwa,Chad,TCD,Definitely endangered,2000.0,10.5958,17.0397
861,Shoshoni (Idaho),shoshone  (Idaho),United States of America,USA,Severely endangered,2000.0,43.0438,-112.4629
1469,Shoshoni (Nevada),shoshone (Nevada),United States of America,USA,Severely endangered,2000.0,40.0358,-113.9835
1468,Shoshoni (Wyoming),shoshone (Wyoming),United States of America,USA,Severely endangered,2000.0,43.014,-108.8209
1222,Tai Phake,phake,India,IND,Severely endangered,2000.0,27.5033,95.2185
2,Tamazight (Arzew),tamazight (Arzew),Algeria,DZA,Critically endangered,2000.0,35.5869,-0.4737
561,Tanglang,tanglang,China,CHN,Vulnerable,2000.0,26.0863,99.7119
1748,Tchitchege,tchitchege,Gabon,GAB,Definitely endangered,2000.0,-1.8508,13.612
1194,Tinan,tinan,"China, India","CHN, IND",Definitely endangered,2000.0,32.519,77.6733
591,Tsafiki,tsafiki,Ecuador,ECU,Definitely endangered,2000.0,-0.25,-79.15
1662,Ukhwejo,ukhwejo,Central African Republic,CAF,Severely endangered,2000.0,3.3626,16.0565
733,Urarina,urarina,Peru,PER,Vulnerable,2000.0,-4.3464,-75.3002
1836,Ushojo,usoyo,Pakistan,PAK,Definitely endangered,2000.0,35.0209,72.897
895,Waigali,vaigalí,Afghanistan,AFG,Definitely endangered,2000.0,35.1895,71.1941
758,Waotededo,huao terero,Ecuador,ECU,Vulnerable,2000.0,-1.1864,-76.6296
2482,Wotapuri-Katarqalai,votapurí,Afghanistan,AFG,Definitely endangered,2000.0,34.4166,70.3333
1426,Wutun,wutunhua,China,CHN,Definitely endangered,2000.0,35.791,102.4365
579,Candoshi,candoshi,Peru,PER,Definitely endangered,1900.0,-3.7107,-76.9042
1771,Hupda (Brazil),hupdé macú (Brasil),Brazil,BRA,Vulnerable,1900.0,0.7909,-68.247
975,Mixtec of the central Ravine,Mixteco de la Cañada Central,Mexico,MEX,Definitely endangered,1878.0,17.9666,-96.8333
1654,Kendeje,kendeye,Chad,TCD,Definitely endangered,1859.0,13.6299,21.5771
1043,Hunzib,hunzib,Russian Federation,RUS,Definitely endangered,1839.0,42.1654,46.2991
1328,Tchumbuli,tchumbuli,Benin,BEN,Critically endangered,1838.0,8.7113,2.1533
747,Cashibo-Cacataibo,cachibo,Peru,PER,Definitely endangered,1800.0,-8.9393,-75.0915
2679,Grass Koiari,coyarí,Papua New Guinea,PNG,Vulnerable,1800.0,-9.4558,147.5559
2536,Isirawa,isirawa,Indonesia,IDN,Vulnerable,1800.0,-1.8783,138.5485
2292,Lanoh,lanoh,Malaysia,MYS,Critically endangered,1800.0,5.2509,101.0206
2310,Lemolang,lemolango,Indonesia,IDN,Vulnerable,1800.0,-2.6303,120.1849
2602,Nila (Seram Island),nila (isla Seram),Indonesia,IDN,Definitely endangered,1800.0,-3.2173,128.9849
2437,Shixing,sichín,China,CHN,Definitely endangered,1800.0,28.5263,100.4734
1360,Chuj (Mexico),chuj (México),Mexico,MEX,Critically endangered,1771.0,16.1203,-92.0407
435,Darma,darma,"India, Nepal","IND, NPL",Definitely endangered,1761.0,30.0037,80.5641
1407,Kung,cungo,Cameroon,CMR,Severely endangered,1750.0,6.5227,10.1074
302,Lokono (Guyana),lokono (Guyana),"Guyana, Venezuela (Bolivarian Republic of)","GUY, VEN",Critically endangered,1750.0,6.2934,-58.0957
433,Byangsi,byangsi,"India, Nepal","IND, NPL",Definitely endangered,1734.0,30.0595,80.7824
518,Pasing,pasing,Lao People's Democratic Republic,LAO,Definitely endangered,1732.0,21.1254,101.4697
1110,Yamphu,yamphu,Nepal,NPL,Definitely endangered,1722.0,27.5935,87.3316
2272,Andio,andio,Indonesia,IDN,Vulnerable,1700.0,-0.8514,123.1457
765,Cheyenne (Montana),cheyén (Montana),United States of America,USA,Definitely endangered,1700.0,45.5495,-106.5263
2178,Kumzari,kumzari,Oman,OMN,Severely endangered,1700.0,26.1936,56.2431
1946,Quechua of Yauyos,quechua de Yauyos.,Peru,PER,Critically endangered,1700.0,-12.9081,-75.6958
1467,Bainouk-Samik,bainuko-samik,Senegal,SEN,Severely endangered,1685.0,12.5733,-16.2652
2239,Côông,cung,Viet Nam,VNM,Definitely endangered,1676.0,22.5943,102.7455
268,Dogrib,dogrí,Canada,CAN,Vulnerable,1675.0,62.8292,-115.9904
840,Upland Yuman,yumano alto,United States of America,USA,Vulnerable,1650.0,36.2377,-112.7094
1018,Eastern Cuicatec,cuicateco oriental,Mexico,MEX,Vulnerable,1641.0,17.9666,-96.7166
2059,Tamazight (Ait Rouadi),tamazight (Ait Rouadi),Morocco,MAR,Extinct,1637.0,32.5745,-5.9655
2348,Woleaian,woleayano,Micronesia (Federated States of),FSM,Severely endangered,1631.0,7.3515,143.8769
921,Huehuetla Tepehua,tepehuano de Huehuetla,Mexico,MEX,Definitely endangered,1603.0,20.46,-98.0761
1630,Kadiwéu,kadiwéu,Brazil,BRA,Definitely endangered,1600.0,-20.5222,-56.7237
1539,Southern Tiwa (Isleta Pueblo),tiwa meridional (Isleta),United States of America,USA,Definitely endangered,1600.0,34.9057,-106.7066
1538,Southern Tiwa (Sandia Pueblo),tiwa meridional (Sandía),United States of America,USA,Definitely endangered,1600.0,35.2516,-106.565
1540,Tewa (Arizona),tehua (Arizona),United States of America,USA,Definitely endangered,1600.0,35.8334,-110.3798
877,Tewa (New Mexico),tehua (Nuevo México),United States of America,USA,Severely endangered,1600.0,36.053,-106.0708
1377,ǁGana,ganakue,Botswana,BWA,Vulnerable,1550.0,-21.7824,21.8971
1761,Akwáwa,assuriní do Tocantins,Brazil,BRA,Vulnerable,1548.0,-5.2441,-52.7014
1017,Northern Cuicatec,cuicateco septentrional,Mexico,MEX,Vulnerable,1503.0,17.9511,-96.7384
1284,Chiquihuitlán Mazatec,mazateco de San Juan Chiquihuillán,Mexico,MEX,Definitely endangered,1502.0,17.9953,-96.7449
1955,Apinajé,apinayé,Brazil,BRA,Vulnerable,1500.0,-6.0317,-47.5604
1848,Bashkarik,bascarí,Pakistan,PAK,Severely endangered,1500.0,35.2893,72.6168
434,Chintang,chintán,Nepal,NPL,Severely endangered,1500.0,26.9367,87.1991
473,Forest Nenets,néncico de los bosques,Russian Federation,RUS,Severely endangered,1500.0,64.9188,77.7941
2000,Hupda (Colombia),hupdé macú (Colombia),Colombia,COL,Definitely endangered,1500.0,0.3845,-70.1367
2291,Jah Hut,jah het,Malaysia,MYS,Severely endangered,1500.0,3.6452,102.3065
15,Jeri,jeri,Côte d'Ivoire,CIV,Severely endangered,1500.0,9.2647,-5.8666
1645,Jonkor Bourmataguil,jonjor,Chad,TCD,Severely endangered,1500.0,11.4261,19.0145
90,K'emant,kemant,Ethiopia,ETH,Severely endangered,1500.0,12.9349,37.2326
1184,Kanashi,kanashi,India,IND,Definitely endangered,1500.0,32.0406,77.1075
1869,Karajá,karajá,Brazil,BRA,Vulnerable,1500.0,-11.0921,-50.3393
1518,Karelian (Tikhvin),carelio (Tijvin),Russian Federation,RUS,Severely endangered,1500.0,59.601,33.3544
1412,Kendem,kendem,Cameroon,CMR,Severely endangered,1500.0,5.7061,9.6377
1221,Khamba,khamba,"China, India","CHN, IND",Definitely endangered,1500.0,29.0105,94.7653
1226,Lishpa,lishpa,India,IND,Definitely endangered,1500.0,27.3327,92.384
1812,Mayoruna (Brazil),matsés (Brasil),Brazil,BRA,Vulnerable,1500.0,-3.3379,-64.8413
786,Mescalero-Chiricahua Apache (New Mexico),apache mescalero-chiricahua (Nuevo México),United States of America,USA,Definitely endangered,1500.0,33.1514,-105.7942
2403,Numao Bunu,bunú bunao,China,CHN,Definitely endangered,1500.0,24.3902,107.2701
2282,Orang Seletar,orang seletar,Malaysia,MYS,Severely endangered,1500.0,1.3387,103.464
1909,Palenque Creole,palenquero,Colombia,COL,Definitely endangered,1500.0,10.0952,-75.1142
2257,Pong,pong,Lao People's Democratic Republic,LAO,Definitely endangered,1500.0,18.4666,105.05
2032,Pyuma,pyuma,China,CHN,Vulnerable,1500.0,22.8027,121.0748
2039,Saaroa,saaroa,China,CHN,Critically endangered,1500.0,23.1283,120.7062
2317,Saluan,saluan,Indonesia,IDN,Vulnerable,1500.0,-0.8129,122.871
2295,Semaq Beri,semaq beri,Malaysia,MYS,Critically endangered,1500.0,4.0012,102.8443
1722,Talodi,talodí,Sudan,SDN,Critically endangered,1500.0,10.6902,30.3964
304,Wayana (Suriname),wayana (Surinam),Suriname,SUR,Vulnerable,1500.0,2.7455,-54.58
215,Wik Mungkan,wik mungkan,Australia,AUS,Vulnerable,1500.0,-12.9403,141.9873
2355,Natsilingmiutut,natsilingmiutut,Canada,CAN,Vulnerable,1455.0,68.643,-95.8863
635,Movima,movima,Bolivia (Plurinational State of),BOL,Severely endangered,1452.0,-13.7954,-65.4345
1661,Ngombe,engombé,Central African Republic,CAF,Definitely endangered,1450.0,3.9492,15.2352
589,Cinta Larga,cinta larga,Brazil,BRA,Vulnerable,1440.0,-11.4154,-59.7216
2234,Dupaninan Agta,agta de Cagayán oriental,Philippines,PHL,Vulnerable,1400.0,17.9682,122.0361
1724,Tese,tese,Sudan,SDN,Critically endangered,1400.0,11.2161,29.8471
1805,Bororo,borôro,Brazil,BRA,Definitely endangered,1390.0,-15.5172,-53.1024
2346,Puluwat,puluwat,Micronesia (Federated States of),FSM,Severely endangered,1364.0,7.5803,149.425
1757,Kanela Rankokamekra,canela ramkokomekra,Brazil,BRA,Vulnerable,1337.0,-6.075,-44.9121
1646,Saba,saba,Chad,TCD,Definitely endangered,1335.0,11.1487,18.0175
1807,Kurripako (Brazil),curripaco (Brasil),Brazil,BRA,Vulnerable,1332.0,0.7001,-68.3789
2253,Triw,trii,Lao People's Democratic Republic,LAO,Definitely endangered,1328.0,15.6833,107.2
1341,Guernsey French,francés de Guernesey,United Kingdom of Great Britain and Northern Ireland,GBR,Severely endangered,1327.0,49.4502,-2.5927
2344,Paafang,pááfango,Micronesia (Federated States of),FSM,Severely endangered,1318.0,7.6198,155.1571
442,Chɨlɨng,chulún,Nepal,NPL,Definitely endangered,1314.0,26.9483,87.2527
947,Zapotec of the Valleys north,zapoteco del valle septentrional,Mexico,MEX,Severely endangered,1303.0,17.0666,-96.65
343,Cypriot Arabic,árabe chipriota,Cyprus,CYP,Severely endangered,1300.0,35.3196,33.338
2067,Palikur (Brazil),palikur (Brasil),Brazil,BRA,Vulnerable,1300.0,4.0396,-51.7236
1196,Sanenyo,chaura,India,IND,Critically endangered,1300.0,7.9504,93.576
1287,Tecóatl Mazatec,mazateco de Tecóatl,Mexico,MEX,Vulnerable,1300.0,18.1653,-96.9124
1833,Xinka,xinka,Guatemala,GTM,Critically endangered,1283.0,14.3447,-90.2603
920,Ozomatlán Totonac,totonacano de Ozumatlán,Mexico,MEX,Critically endangered,1276.0,20.1766,-98.0527
1126,Kāgate,kagate,Nepal,NPL,Definitely endangered,1273.0,27.5449,86.2925
628,Maxakali,maxacalí,Brazil,BRA,Vulnerable,1271.0,-16.5519,-40.3417
2688,Murik,múrico,Papua New Guinea,PNG,Vulnerable,1256.0,-3.8368,144.2807
1580,Pengo,pengo,India,IND,Critically endangered,1254.0,19.0621,83.4851
1809,Marúbo,marúbu,Brazil,BRA,Vulnerable,1252.0,-6.0968,-70.2246
1968,Aivilingmiutut,aivilingmiutut,Canada,CAN,Vulnerable,1245.0,64.1657,-83.243
1634,Besme,besme,Chad,TCD,Severely endangered,1228.0,9.6386,16.018
2605,Oirata,oirata,Indonesia,IDN,Definitely endangered,1221.0,-8.0755,127.1777
1093,Lohorung,lohorong,Nepal,NPL,Severely endangered,1207.0,27.4266,87.2498
1709,Harakmbut,harakambeto,Peru,PER,Definitely endangered,1206.0,-12.9403,-70.2685
2416,Buyang,buyán,China,CHN,Severely endangered,1200.0,23.4146,105.7632
2279,Dakka,dakka,Indonesia,IDN,Vulnerable,1200.0,-3.316,119.2071
2289,Mah Meri,besisi,Malaysia,MYS,Severely endangered,1200.0,2.836,101.4299
588,Manjui,manjui,"Argentina, Bolivia (Plurinational State of), Paraguay","ARG, BOL, PRY",Definitely endangered,1200.0,-23.1201,-62.7539
2613,Te'un (Seram Island),teun (isla Seram),Indonesia,IDN,Definitely endangered,1200.0,-3.1843,128.9465
2034,Tsou,tsou,China,CHN,Vulnerable,1200.0,23.5174,120.8564
2614,Ujir,ujir,Indonesia,IDN,Definitely endangered,1200.0,-5.6105,134.2776
2420,White Gelao (China),gelao blanco (China),China,CHN,Severely endangered,1200.0,26.4894,105.021
2252,Dakkang,dakkang,Lao People's Democratic Republic,LAO,Definitely endangered,1198.0,15.6333,107.25
2359,Northern Algonquin,algonquino septentrional,Canada,CAN,Vulnerable,1180.0,48.0616,-77.3521
1923,Akawaio (Brazil),akawaio (Brasil),Brazil,BRA,Vulnerable,1170.0,4.1711,-60.249
1272,Huehuetlán Mazatec,mazateco de Huehuetlán,Mexico,MEX,Vulnerable,1169.0,18.1964,-96.9471
1697,Trio (Brazil),trió (Brasil),Brazil,BRA,Vulnerable,1156.0,1.7136,-55.2392
2636,Savo,savo,Solomon Islands,SLB,Definitely endangered,1147.0,-9.1292,159.8071
1830,Tektitek,tectiteco,Guatemala,GTM,Definitely endangered,1144.0,15.3073,-92.0609
2493,Fwâi,fwâi,New Caledonia (France),NCL,Vulnerable,1131.0,-20.7048,164.9034
1855,Waimirí-Atroarí,atroarí,Brazil,BRA,Vulnerable,1120.0,-1.0985,-60.8203
1913,Guayabero,guayabero,Colombia,COL,Definitely endangered,1118.0,2.6028,-72.3999
2502,Fagauvea (Northern),uveano (septentrional),New Caledonia (France),NCL,Vulnerable,1107.0,-20.4089,166.5444
2503,Fagauvea (Southern),uveano (meridional),New Caledonia (France),NCL,Vulnerable,1107.0,-20.7381,166.4126
1649,Fania,fanya,Chad,TCD,Severely endangered,1100.0,10.0581,18.3993
1642,Ubi,ubi,Chad,TCD,Severely endangered,1100.0,12.1534,18.6946
1731,Warnang,warnango,Sudan,SDN,Severely endangered,1100.0,10.6538,30.6298
1788,Itzá,itzá,Guatemala,GTM,Critically endangered,1094.0,16.9838,-89.899
974,Mixtec of the southwest of Puebla,Mixteco del sureste de Puebla,Mexico,MEX,Definitely endangered,1074.0,18.6333,-98.0666
924,Lowland Chontal,chontal bajo,Mexico,MEX,Critically endangered,1060.0,16.0286,-95.6683
530,Koireng,liangmai,India,IND,Critically endangered,1056.0,24.2319,93.7463
584,Chipaya,chipaya,Bolivia (Plurinational State of),BOL,Definitely endangered,1050.0,-19.2074,-68.2031
2340,Mokilese,moquilés,Micronesia (Federated States of),FSM,Critically endangered,1050.0,6.6864,159.7631
1499,Western Náhuatl,nahua de occidente,Mexico,MEX,Severely endangered,1041.0,18.3745,-103.3026
1270,Acatepec Mazatec,mazateco de Acatepec,Mexico,MEX,Vulnerable,1038.0,18.1621,-96.8766
973,Mixtec of Villa de Tututepec,Mixteco de Villa de Tututepec,Mexico,MEX,Definitely endangered,1019.0,16.1333,-97.6
1575,Toda,toda,India,IND,Critically endangered,1006.0,11.3184,76.8273
2580,Adabe,adabe,Timor-Leste,TLS,Vulnerable,1000.0,-8.2549,125.5737
463,Alutor,aliutor,Russian Federation,RUS,Severely endangered,1000.0,60.2016,165.4238
1455,Arapaho (Wyoming),arapaho (Wyoming),United States of America,USA,Severely endangered,1000.0,43.0139,-108.8214
113,Beeke,beeke,Democratic Republic of the Congo,ZAI,Severely endangered,1000.0,0.9997,28.7951
1453,Blackfoot (United States of America),pies negros (Estados Unidos),United States of America,USA,Definitely endangered,1000.0,48.5699,-113.0918
1612,Bohtan Neo-Aramaic,neo-arameo de Bohtan,"Georgia, Russian Federation","GEO, RUS",Severely endangered,1000.0,41.5579,45.0219
2441,Bola,bela,China,CHN,Definitely endangered,1000.0,25.0638,98.2414
95,Bong'om,bong'om,Kenya,KEN,Definitely endangered,1000.0,1.1315,35.0134
736,Bora,bora,"Colombia, Peru","COL, PER",Vulnerable,1000.0,-2.7455,-71.8835
